stop_id,stop_name,stop_lat,stop_lon
1003088,SA442 HENTIAN SEKSYEN 19,3.05578,101.525905
1000478,SA428 CIAST,3.052867,101.524969
1003090,SA934 SMK SEKSYEN 18 (OPP),3.051810111,101.5243534
1003091,SA935 SEKYEN 19 (UTARA),3.049167618,101.5251185
1000734,SA425 SEKSYEN 23 (BARAT),3.048563524,101.5280258
1002229,SA454 SEKSYEN 19 (SELATAN),3.048676175,101.5303742
1001018,SA421 SEKSYEN 23 (UTARA),3.047091175,101.5321333
1001403,SA388 SEKSYEN 23 (SELATAN),3.042169258,101.5341732
1002424,SA389 TAMAN SRI MUDA SEKSYEN 25 (UTARA),3.036845112,101.5343791
1000356,SA392 MASJID TAMAN SRI MUDA,3.034145335,101.5345174
1003610,SA405 HAB TAMAN SRI MUDA,3.030725794,101.5349905
1000323,SA407 APARTMENT ANDORRA,3.02626336,101.5364683
1008089,SMK TAMAN SRI MUDA,3.026127,101.539046
1008090,SA397 TAMAN PERINDUSTRIAN AXIS,3.025822,101.541811
1008091,SURAU KEMUNING UTAMA,3.016653,101.541827
1008106,SA216 KOTA KEMUNING CENTRAL LAKE,3.002302,101.539769
1001568,SA217 KOTA KEMUNING BUSINESS PARK,3.003037,101.538284
1000073,SA218 CANAL GARDEN,3.003579442,101.5339916
1008105,GAMUDA WALK MALL,3.000565,101.532836
1008092,SA223 CHINESE TAIPEI SCHOOL KL,2.997926,101.52742
1008093,SHAH ALAM BUDDIST SOCIETY,2.995262,101.526684
1000817,SA191 MERANTI TERRACE,2.986911319,101.5354064
1002799,SA196 PUSAT PERNIAGAAN KOTA KEMUNING,2.987127,101.540773
1008107,SA213 PANGSAPURI SRI KEMUNING (TIMUR),2.990847,101.549845
1000676,PANGSAPURI SRI KEMUNING (UTARA),2.991606079,101.5495025
1002178,SA214 PANGSAPURI SRI KEMUNING (BARAT),2.990915,101.548514
1003920,SA207 KOTA KEMUNING INDUSTRIAL PARK (SELATAN),2.989486,101.547371
1008094,SA215 SK KOTA KEMUNING (OPP),2.995521,101.546295
1008095,PERUMAHAN KEMUNING PERMAI,3.01125,101.5426
1008096,SURAU KEMUNING UTAMA (OPP),3.016773,101.541612
1008097,SA398 TAMAN PERINDUSTRIAN AXIS,3.025957,101.541671
1001993,SA403 APARTMENT MEDITERANEAN,3.032352,101.539293
1004060,SA411 HAB TAMAN SRI MUDA,3.030417539,101.5347596
1000350,SA417 MASJID TAMAN SRI MUDA (OPP),3.034468996,101.5342357
1002854,SA416 TAMAN SRI MUDA SEKSYEN 25,3.03695792,101.5340438
1002092,SA418 SEKSYEN 23,3.042274941,101.5338907
1000821,SA422 SEKSYEN 23 (UTARA),3.046606175,101.5318519
1002579,SA423 SEKSYEN 19 (SELATAN),3.0484296,101.5301844
1006702,KL2424 DAMANLELA CARPARK,3.149055,101.66251
1007137,KL1174 MRT SEMANTAN PINTU B,3.151704,101.665622
1008432,PANGSAPURI SRI AYU,2.994351,101.492657
1008433,TAMAN CAMELIA,2.995259,101.492097
1009120,KILANG INTERGREEN,2.993229,101.489157
1009123,PERUMAHAN JALAN PENDING,2.993981,101.470175
1009124,IMPIAN SENTOSA APARTMENT (OPP),2.997883,101.468483
1009126,BD593 KOMERSIAL TAMAN SENTOSA,3.002175,101.470071
1009129,TAMAN MEWAH JAYA,3.007932,101.472124
1008440,PASARAYA NSK,3.007153,101.478485
1008438,HOSPITAL PAKAR SENTOSA,3.005388,101.483227
1009119,BD355 AMJ INDUSTRIAL PARK (SELATAN),3.005597,101.491575
1009116,BD10 AMJ INDUSTRIAL PARK (UTARA),3.006984,101.490793
1009114,BD9 KG JAWA BATU 9,3.008305,101.489998
1009112,BD8 SJKT BATU AMPAT,3.011781,101.487975
1009110,BD7 TAMAN SENTOSA PERDANA,3.014696,101.486258
1009108,BD6 TAMAN KANDIS PERMAI (SELATAN),3.018175,101.484214
1009106,BD5 TAMAN KANDIS PERMAI (UTARA),3.020566,101.482805
1009107,BD356 DESA LATANIA,3.021622,101.482181
1009103,BD4 TAMAN KLANG INDAH,3.022822,101.481453
1009102,BD3 GIANT (SELATAN),3.024157,101.480731
1009099,BD2 GIANT (UTARA),3.025776,101.479804
1009097,BD1 KG SG KANDIS (BARAT),3.027773,101.478977
1009095,BD40 TAMAN MENEGUN INDAH/SK TELOK MENEGON,3.031412,101.474477
1009093,BD42 TAMAN ALAM SHAH/KARYA RESIDENSI,3.029398,101.469291
1009092,BD43 TAMAN BIJAYA,3.028332,101.466493
1008449,BD44 TAMAN RAJA NONG,3.028394,101.461972
1008451,BD45 MASJID DATUK DAGANG (OPP),3.028896,101.460574
1008453,BD46 TAMAN SHAHBANDARAYA,3.030099,101.45749
1008455,BD47 TAMAN NAKHODA YUSOF,3.031185,101.455172
1008457,BD48 KISAS (OPP),3.033743,101.451732
1008459,BD49 ISTANA ALAM SHAH,3.037576,101.451473
1008461,BD50 DEWAN MELAYU KLANG,3.039031,101.451744
1006001,BD51 SK KLANG,3.040408,101.450591
1006366,BD579 PLAZA MPK,3.047822,101.448931
1006008,SJKC KONG HOE,3.047747,101.451738
1001516,BD580 WISMA HAFIZ,3.046749,101.449869
1006000,BD28 KTM KLANG,3.042817,101.450068
1008462,BD29 KOMPLEKS SUKAN,3.038694,101.451862
1008460,BD30 SM CHUNG HUA,3.037157,101.451601
1008458,BD31 KISAS,3.033162,101.452857
1008456,BD32 TAMAN NAKHODA YUSOF,3.031165,101.455506
1008454,BD33 TAMAN SHAHBANDARAYA,3.030178,101.457712
1008452,BD34 MASJID DATUK DAGANG,3.029205,101.460269
1008450,BD35 TAMAN RAJA NONG,3.028638,101.461872
1009091,BD36 TAMAN SRI MEWAH,3.028481,101.466279
1009094,BD38 TAMAN ALAM SHAH,3.030427,101.471377
1009096,BD39 TAMAN MENEGUN INDAH/SURAU HIDAYAH,3.032003,101.475395
1009098,SA867 KG SG KANDIS (BARAT),3.027196,101.479328
1009100,SA868 GIANT (UTARA),3.025792,101.480005
1009101,SA869 GIANT (SELATAN),3.024212,101.480891
1009104,SA872 TAMAN KLANG INDAH,3.022705,101.481839
1009105,SA873 DESA LATANIA,3.021527,101.482519
1009109,SA874 TAMAN KANDIS PERMAI (UTARA),3.018029,101.484477
1009111,SA876 TAMAN SENTOSA PERDANA,3.014196,101.486744
1009113,SA877 SJKT BATU AMPAT (OPP),3.011562,101.488294
1009115,SA878 KG JAWA BATU 9,3.008646,101.490004
1009117,SA879 AMJ INDUSTRIAL PARK (UTARA),3.006959,101.490994
1009118,SA880 AMJ INDUSTRIAL PARK (SELATAN),3.005507,101.491858
1008437,TAMAN SENTOSA PERDANA,3.005074,101.482971
1008439,PASARAYA NSK (OPP),3.006793,101.478474
1009128,TAMAN MEWAH JAYA,3.007778,101.472266
1009127,KOMERSIAL TAMAN SENTOSA,3.001896,101.470108
1009125,IMPIAN SENTOSA APARTMENT,2.997725,101.468569
1009122,PERUMAHAN JALAN DATO ABDUL HAMID,2.994264,101.470038
1009121,KILANG INTERGREEN (OPP),2.993217,101.488957
1001831,KL195 LRT TAMAN MELATI,3.219456665,101.7215253
1000721,PERUMAHAN AWAM SRI LANGKAWI,3.219765,101.720774
1003746,KL934 SURAU NURUL MUSTAQIM,3.218971,101.719572
1001351,SL310 FLAT GOMBAK SETIA (OPP),3.220264,101.718291
1003346,SL208 SK GOMBAK SETIA,3.219087811,101.7151326
1000558,SL317 GOMBAK SETIA,3.22155717,101.7131682
1004217,SL318 GOMBAK SETIA,3.224808139,101.7141204
1002973,SL103 KG TENGAH GOMBAK,3.227421,101.713756
1000559,SL104 TAMAN BUKIT LELA,3.228916269,101.7134518
1001948,SL105 DEWAN DATIN ZALEHA,3.230144256,101.7126332
1001051,SL214 JEJANTAS SPG 3,3.233572,101.709758
1003974,SL215 HAB BAS GREENWOOD,3.234012,101.706193
1000848,SL233 GERAI MAKAN MPS,3.234336,101.704795
1002908,SL216 PADANG TAMAN GREENWOOD,3.232418,101.703919
1003459,SL218 SMK SERI GOMBAK (OPP),3.230448,101.703496
1002943,SL219 PERUMAHAN JLN BERJAYA 4,3.228962637,101.7028593
1002858,SL227 DEWAN MPS GOMBAK (OPP),3.227882,101.702275
1001521,SL502 TAMAN GREENWOOD INDAH,3.224327,101.700559
1002938,KL939 KG LEMBAH MELEWAR (TIMUR),3.218263,101.700709
1001789,PERUMAHAN LEMBAH MELEWAR,3.2184703,101.6953999
1006202,KL2329 MASJID BILAL BIN RABAH,3.220886,101.694812
1006203,(M) KL2330 BOMBA GOMBAK SELATAN,3.223161,101.696042
1000382,DEWAN KOMUNITI CHANGKAT DESA,3.22351,101.698533
1001520,SL223 TAMAN GREENWOOD INDAH,3.224501524,101.7005064
1002857,SL224 TAMAN GOMBAK (SELATAN),3.225944,101.701231
1002942,SL226 DEWAN MPS GOMBAK,3.228312,101.702355
1003458,SL229 SMK SERI GOMBAK (TIMUR),3.230689,101.703473
1002218,SL230 PADANG TAMAN GREENWOOD,3.231905,101.703552
1007532,SL231 PADANG TAMAN GREENWOOD,3.232677,101.703935
1000847,SL232 TAMAN GREENWOOD (UTARA),3.234478,101.704747
1003973,SL212 HAB BAS GREENWOOD (OPP),3.234304,101.706215
1001052,SL213 JEJANTAS SPG 3,3.233993,101.709501
1000557,SL109 DEWAN DATIN ZALEHA (OPP),3.231048376,101.7124181
1007550,SL490 KG TENGAH GOMBAK,3.229478,101.713428
1003975,SL110 PANGSAPURI SRI HARMONIS,3.227791,101.713998
1004218,SL111 KG TGH GOMBAK (SELATAN),3.224820124,101.7143626
1001548,SL112 MASJID BATU 6 (OPP),3.222574543,101.7138616
1003449,SL173 GOMBAK SETIA,3.220075586,101.7130105
1003345,SL210 SMK GOMBAK SETIA,3.219191,101.715016
1001648,KL932 APT MELATI IMPIAN,3.217985,101.717159
1000768,KL933 M3 MALL,3.217839,101.719101
1000772,KL1495 PERUMAHAN AWAM SRI LANGKAWI (OPP),3.219279,101.720216
1000786,KL1601 APT SRI TIOMAN,3.221334,101.720317
1001914,KL2070 SRA SALAHUDIN AL-AYUBI (OPP),3.223567,101.720227
1003217,KL196 TAMAN PERWIRA 1,3.225053,101.721701
1003567,KL187 TAMAN CEMERLANG,3.226197768,101.7228477
1001322,KL198 FLAT TAMAN MELATI E6,3.227109,101.725318
1000795,KL2071 FLAT TAMAN MELATI BLOK D,3.225213011,101.7257052
1002951,KL200 PERUMAHAN JLN TAMAN MELATI 6,3.223533,101.724053
1003687,KL1600 TAMAN MASTIKA,3.219723694,101.723416
1001827,(M) KL746 LRT SRI RAMPAI,3.198835928,101.7375262
1004212,WANGSA 9 RESIDENCY,3.198697,101.739854
1000986,KL747 WANGSA WALK (TIMUR),3.199022,101.743877
1000450,KL2106 AEON BIG WANGSA MAJU,3.195350294,101.7421385
1002626,(M) KL750 SHELL WANGSA MAJU,3.196479661,101.7446947
1006745,WANGSA WALK MALL,3.199117,101.741457
1006746,LRT SRI RAMPAI (OPP),3.198298,101.739574
1008647,INFINITI 3 RESIDENCES,3.194424,101.737616
1007524,KL725 RAMPAI COURT (SELATAN),3.192312,101.734184
1003859,KL726 TAMAN MEGAN SETAPAK,3.194451,101.730545
1003850,MASJID ABU UBAIDAH,3.194386,101.728885
1002273,KL713 TAMAN SETAPAK JAYA (UTARA),3.192257,101.727729
1002972,(M) KL717 TAMAN SRI RAMPAI (BARAT),3.191569521,101.7294718
1004237,KL714 SMK TAMAN SRI RAMPAI,3.191344,101.732723
1001006,KL2088 ITBM WANGSA MAJU (TIMUR),3.189761,101.735855
1000751,KL2089 SRI LEDANG SEKSYEN 10,3.188151,101.736384
1003617,KL723 SURAU DARUL HUDA,3.186976677,101.7358699
1000623,(M) KL724 ITBM WANGSA MAJU (OPP),3.189512331,101.7350632
1008491,AVILA RESIDENCES,3.192218,101.737081
1003603,KL820 WANGSA 118,3.195604,101.741666
1000458,KL821 KOMERSIAL WANGSA DELIMA,3.197132,101.742443
1001259,AJ359 HENTIAN TAMAN MELAWATI,3.227956,101.745649
1000355,AJ360 TAMAN MELAWATI E,3.225955,101.744082
1002285,AJ361 KOMERSIAL TAMAN MELAWATI E,3.222248,101.741187
1003835,AJ363 KG KLANG GATE,3.219578,101.739467
1003099,AJ366 ISKL MELAWATI (OPP),3.219346,101.742543
1000498,AJ367 MM RESIDENCY,3.215858,101.745914
1006121,KOMERSIAL TAMAN MELAWATI (OPP),3.212368,101.750343
1003410,AJ351 SMK TAMAN MELAWATI,3.214854614,101.7503968
1002231,AJ352 TAMAN MELAWATI A (UTARA),3.217931434,101.748631
1000663,AJ353 TAMAN MELAWATI A (UTARA),3.221620334,101.7481373
1007533,AJ457 BUKIT MELAWATI (TIMUR),3.221104,101.748335
1000664,AJ374 TAMAN MELAWATI A (UTARA),3.218451,101.748741
1007534,SJK TAMIL TAMAN MELAWATI,3.216683,101.749693
1003472,AJ458 SMK TAMAN MELAWATI,3.214588,101.75088
1003073,AJ377 SK TAMAN MELAWATI 2,3.212175644,101.7521888
1003885,AJ378 TELEKOM MELAWATI,3.210046,101.753108
1000868,AJ490 KOMERSIAL TAMAN PERMATA/MELAWATI MALL,3.208423,101.749562
1002463,KL184 KOMERSIAL WANGSA MELAWATI,3.209891036,101.7439301
1003775,KL185 DATARAN WANGSA MAJU (OPP),3.207706145,101.74234
1001835,(M) KL192 LRT WANGSA MAJU,3.204959,101.732321
1000750,KL193 TAR VILLA,3.206962464,101.7297553
1003848,KL169 TAR VILLA,3.207445596,101.7295288
1001834,KL170 LRT WANGSA MAJU,3.205606,101.731913
1000551,KL171 PERUMAHAN DESA SETAPAK,3.204420892,101.7333868
1006132,KL1617 DATARAN WANGSA MAJU,3.207986,101.742255
1002462,KL1616 PETRONAS WANGSA MELAWATI,3.20998823,101.7435974
1001368,AJ489 MELAWATI MALL,3.208921,101.748699
1000430,AJ473 TAMAN MELAWATI B,3.210784317,101.7526521
1006122,AJ368 KOMERSIAL TAMAN MELAWATI,3.212178,101.750447
1000543,AJ369 SERINI MELAWATI,3.212327,101.748373
1000497,AJ370 KK CLUB BERHAD,3.215675,101.745821
1003098,AJ371 KL INTERNATIONAL SCHOOL (TIMUR),3.220262,101.741434
1002734,AJ372 KOMERSIAL TAMAN MELAWATI E,3.222237,101.740747
1003069,AJ373 TAMAN MELAWATI I,3.225782,101.743698
1003663,AJ356 SK TAMAN MELAWATI,3.224281915,101.7473516
1003827,AJ357 TADIKA WATI,3.225163,101.748794
1000852,AJ358 TAMAN MELAWATI H,3.228459,101.748052
1000966,AJ52 HUB SRI NILAM,3.139852738,101.7693092
1008403,PERUMAHAN JLN WAWASAN 3/2,3.143354,101.769523
1008070,AJ309 AMPANG WATERFRONT 2,3.144168,101.771472
1008071,AJ62 AMPANG WATERFRONT 2 (TIMUR),3.143442,101.773506
1003580,AJ310 TAMAN SRI AMPANG,3.143422,101.774898
1001284,AJ431 KOMERSIAL AMPANG,3.143416,101.778513
1006886,AJ128 AEON BIG AMPANG (OPP),3.140652,101.780257
1006887,RENJANA AMPANG (OPP),3.136576,101.780065
1006888,TAMAN DAGANG JAYA,3.133527,101.779228
1006889,KG TASIK PERMAI,3.130534,101.778774
1008072,SPG KG TASIK PERMAI,3.128767,101.778593
1003577,SPG TAMAN SRI BAYU,3.125670503,101.7771406
1002292,PASAR TASEK TAMBAHAN,3.122739572,101.7748038
1004109,TAMAN TASIK TAMBAHAN,3.121595,101.771667
1001577,AJ153 TAMAN PUTRA AMPANG BARAT,3.120654,101.766083
1002688,AJ428 PARAGON POINT (UTARA),3.120681,101.762941
1003220,AJ155 SMK PANDAN MEWAH,3.125219,101.762831
1008069,AJ156 HOSPITAL AMPANG,3.12755,101.762898
1001647,AJ337 APARTMENT PANDAN MEWAH,3.129739,101.762947
1000682,AJ430 FLAT BAYU MURNI (OPP),3.133726,101.765691
1000080,AJ424 KG AMPANG CAMPURAN,3.13435,101.7674
1006893,AJ322 SMK BANDAR BARU AMPANG,3.137365,101.769085
1002241,AJ276 PANDAN HEIGHT,3.112722443,101.7386335
1002245,AJ277 PANDAN VISTA,3.115183,101.73894
1002242,AJ278 PANDAN PERDANA DELUXE,3.116378,101.73961
1002410,AJ470 PERDANA VILLA,3.118058,101.740585
1002247,AJ279 PANDAN PERDANA (BARAT),3.119833,101.741585
1008085,PLAZA PANDAN,3.119839,101.742327
1003125,AJ273 SK PANDAN PERDANA,3.115781,101.741784
1008086,STADIUM MPAJ,3.114366,101.741958
1008087,AJ274 KOMERSIAL PANDAN PERDANA,3.113278,101.744602
1003057,AJ331 TAMAN KENCANA (BARAT),3.119608,101.748577
1003990,AJ332 TAMAN KENCANA (TIMUR),3.11964,101.750297
1006901,AJ168 TAMAN KENCANA (UTARA),3.120468,101.75124
1003350,AJ169 SMK PANDAN INDAH (OPP),3.122488,101.751166
1006899,AJ239 SK PANDAN INDAH,3.125026,101.751489
1006897,FLAT LEMBAH MAJU,3.125075,101.754399
1003825,AJ236 TAMAN LEMBAH MAJU,3.123595,101.755247
1003326,AJ237 SK TAMAN MUDA,3.12050835,101.7554294
1002044,AJ230 TAMAN MUDA (BARAT),3.119856,101.756687
1001177,AJ231 TAMAN MUDA (TIMUR),3.119988964,101.7591467
1001755,AJ242 KOMERSIAL TAMAN MUDA,3.121373,101.760082
1001651,AJ157 PANDAN MEWAH HEIGHTS,3.130923,101.762139
1000992,AJ158 FLAT 610,3.130479,101.760369
1003749,AJ159 SURAU MADRASATUL SOFWA,3.129884167,101.7589606
1000610,AJ160 APARTMENT BUNGA RAYA,3.129247333,101.757267
1002238,AJ161 MENARA MPAJ,3.128996,101.753841
1006895,AJ228 MIDPOINT COMPLEX,3.131597,101.752703
1000728,AJ179 APARTMENT MERPATI,3.133868,101.7563377
1000354,AJ223 APARTMENT MERPATI,3.134151,101.757526
1000134,AJ423 APARTMENT NURI COURT,3.135695,101.756302
1000129,AJ224 APARTMENT KENARI COURT,3.136451,101.754541
1003522,AJ225 PANGSAPURI DAHLIA,3.136262,101.752881
1000704,AJ226 PANGSAPURI DAHLIA,3.134203333,101.7515104
1008088,KOMERSIAL PANDAN INDAH,3.133105,101.751201
1001334,AJ269 TAMAN MAJU JAYA,3.130447974,101.7429802
1002794,AJ270 CHERAS INDAH NIGHT MARKET,3.128708,101.742922
1003776,AJ271 TAMAN CHERAS INDAH,3.124393,101.742457
1000009,AJ272 PANDAN PERDANA (TIMUR),3.12019,101.743645
1003537,AJ275 PANDAN PERDANA (SELATAN),3.114246579,101.7410574
1006874,KOMERSIAL BANDAR BARU AMPANG,3.144269,101.768303
1006875,AMPANG PRIMA,3.145074,101.766307
1003422,AJ48 SPECTRUM MALL (OPP),3.145375,101.765176
1006876,AJ103 DEWAN KOMUNITI AMPANG,3.14467,101.763237
1006877,PLAZA AMPANG JAYA,3.14391,101.762358
1006878,MEWAH COURT,3.142431,101.761617
1006879,METRO VILLA (OPP),3.140876,101.760722
1006880,AJ198 LRT CAHAYA,3.14022,101.758112
1006881,SPG JLN CAHAYA 3,3.142144,101.755633
1006882,APARTMENT TAMAN NIRWANA (OPP),3.143996,101.755369
1001527,AJ440 GALAXY AMPANG,3.146583,101.756626
1006883,IPD AMPANG JAYA,3.148641,101.756975
1001783,AJ31 LRT AMPANG (OPP),3.151348,101.760686
1000602,AJ32 DEWAN DATO AHMAD RAZALI,3.148583,101.764107
1000088,AJ61 AMPANG WATERFRONT (BARAT),3.147362,101.766674
1003505,AJ435 AMPANG WATERFRONT (TIMUR),3.146458,101.768487
1006885,PERUMAHAN JLN WAWASAN 1/2,3.143673,101.769793
1006414,HENTIAN BANTING,2.811984,101.503445
1006367,LG115 PEJABAT PERTANIAN,2.817882,101.518711
1006369,LG116 JKR KUALA LANGAT,2.819277,101.521956
1006371,LG117 KAFA INTEGRASI,2.820608,101.525184
1006373,LG118 SMK BANTING (OPP),2.822258,101.529163
1006375,LG119 AIMPOINT PLAZA (OPP),2.824055,101.533376
1006377,LG120 SMK SG MANGGIS,2.825598,101.536892
1006379,LG121 SJKT MANGGIS,2.826731,101.540579
1006381,LG122 MAHKOTA INDUSTRIAL BANTING,2.830321,101.549008
1006383,LG124 KG SG MANGGIS,2.833871,101.554631
1006385,LG125 KG OLAK LEMPIT (BARAT),2.835663,101.560635
1006387,LG126 TAMAN DESA IDAMAN 2,2.837151,101.567174
1006388,"LG127 TAMAN DESA IDAMAN,KG OLAK LEMPIT",2.837348,101.573825
1006390,LG129 PERUMAHAN TAMAN MERBAH,2.836944,101.582561
1006392,LG130 SRA OLAK LEMPIT,2.836604,101.586811
1006394,LG131 KG OLAK LEMPIT (TIMUR),2.835566,101.595052
1006396,LG132 KOMPLEKS NIAGA,2.835158,101.597981
1006398,LG133 TAMAN NURI INDAH,2.833833,101.606184
1006400,PERUSAHAAN OLAK LEMPIT,2.826847,101.609873
1006402,KOLEJ MARA BANTING,2.812737,101.624357
1006404,LG145 GENTING SANYEN (OPP),2.802827,101.653231
1002838,TAMAN LANGAT MURNI,2.799123,101.657588
1006406,LG146 APARTMENT LANGAT UTAMA,2.796264,101.660854
1006408,MITSUI,2.778686,101.678057
1006409,KLIA 2,2.745307,101.684533
1008290,KOMPLEKS TABUNG HAJI,2.788397,101.678793
1006407,LG147 APARTMENT LANGAT UTAMA,2.798963,101.657267
1006405,LG148 GENTING SANYEN,2.802627,101.653074
1006403,TADOM HILL,2.812211,101.624274
1006399,LG9 TAMAN NURI INDAH,2.833607,101.605377
1006397,LG10 KOMPLEKS NIAGA,2.834976,101.598232
1006395,LG11 KG OLAK LEMPIT (TIMUR),2.835518,101.594453
1006393,LG12 SK OLAK LEMPIT,2.836452,101.586649
1006391,LG13 PERUMAHAN TAMAN MERBAH,2.836806,101.582108
1006413,LG14 TAMAN MERBAH RIMBA,2.836925,101.579386
1006389,"LG15 TAMAN DESA IDAMAN,KG OLAK LEMPIT",2.837193,101.574031
1006386,LG17 KG OLAK LEMPIT (BARAT),2.835499,101.560656
1006384,LG18 KG SG MANGGIS,2.833268,101.554115
1006382,LG19 MAHKOTA INDUSTRIAL (OPP),2.831658,101.551535
1006380,LG21 KOMPLEKS PENGHULU MANGGIS,2.826558,101.540526
1006378,LG22 SMK SG MANGGIS (OPP),2.825643,101.537589
1006376,LG23 AIMPOINT PLAZA,2.823871,101.533347
1006374,LG25 SMK BANTING,2.821658,101.528247
1006372,LG26 SMK TELOK DATOK,2.820041,101.524656
1006370,LG27 TAMAN SRI TELOK DATOK,2.818938,101.521836
1006368,LG28 PEJABAT PERTANIAN (OPP),2.817628,101.518756
1008466,BD553 TAMAN RAKYAT,3.018983,101.450322
1008467,BD550 SRI TANJUNG 1,3.025424,101.451329
1008468,BD551 SRI DAMAK 11,3.021167,101.450678
1008469,BD554 SMK SRI ANDALAS,3.018844,101.450524
1008465,BD555 SJKT SIMPANG LIMA,3.015913,101.445624
1008463,KAWASAN PERNIAGAAN SRI ANDALAS,3.014493,101.442629
1008464,BD535 TAMAN SRI ANDALAS,3.016214,101.445547
1008471,BD537 TAMAN SAUJANA (BARAT),3.013703,101.458923
1008473,BD538 TAMAN SAUJANA (TIMUR),3.012166,101.462921
1008443,TAMAN SAUJANA JATI,3.016154,101.466786
1008445,BUNGA RAYA RESIDENCE,3.020516,101.466862
1008447,BD543 SK KAMPUNG JAWA,3.024986,101.466424
1008448,BD544 SK KAMPUNG JAWA (OPP),3.025083,101.466582
1008446,TAMAN SAGA 3,3.020639,101.467021
1008444,TAMAN SEJATI 5,3.016177,101.466968
1008474,BD545 TAMAN SAUJANA (TIMUR),3.012132,101.462341
1008472,BD546 TAMAN SAUJANA (BARAT),3.013201,101.459463
1008470,BD547 DEWAN SUKAN KLANG,3.015299,101.451431
1008441,PASARAYA ECONMART,3.010572,101.466945
1008442,DEWAN SERBAGUNA TAMAN SENTOSA,3.010841,101.467375
1008436,SA881 BUKIT NAGA (BARAT),3.001331,101.494346
1001782,AJ106 LRT AMPANG,3.151223111,101.7604475
1000492,KL91 CITIBANK / INTERCONTINENTAL HOTEL,3.160277615,101.7173027
1001518,(M) KL94 KLCC (UTARA),3.158876,101.712331
1009130,PARK & RIDE LRT AMPANG,3.150269,101.760679
1001828,PJ445 LRT TAMAN JAYA,3.103876,101.644993
1002556,PJ749 WISMA MCIS,3.101026633,101.6422353
1001785,(M) PJ437 LRT ASIA JAYA,3.103882894,101.6391459
1003320,PJ439 SK SRI PETALING (OPP),3.108625,101.639152
1000484,PJ278 DIGITAL MALL SEKSYEN 14,3.110474,101.636336
1005034,PJ302 QUILL 9,3.114216,101.632624
1002012,PJ716 MENARA AMFIRST,3.118122,101.629172
1000836,PJ312 MEDAN SELERA SEKSYEN 19,3.118849,101.628699
1000980,PJ313 KOMERSIAL SEKSYEN 19,3.118281345,101.6262725
1006038,PJ771 KOMERSIAL SS2 (PUBLIC BANK),3.120713,101.621792
1001276,PJ347 KOMERSIAL SS2 (POH KONG),3.117253827,101.6208864
1900004,SS2,3.116222,101.622244
1000204,PJ712 BALAI POLIS SEAPARK,3.117036,101.623111
1002865,PJ349 MEDAN SELERA SEKSYEN 19,3.119018,101.628689
1000944,PJ210 HOTEL LISA DE INN,3.118249,101.630639
1003538,PJ211 FLAT SEKSYEN 17 (SELATAN),3.118937,101.633375
1004190,PJ212 JAYA ONE MALL (OPP),3.118939,101.635496
1002675,PJ237 PUSAT ASASI UIA (SELATAN),3.118802,101.639562
1001955,PJ238 MASJID KOLEJ ISLAM,3.118732,101.640579
1003407,PJ245 SMK SULTAN ABD SAMAD (TIMUR),3.118566,101.645001
1001007,PJ247 MAHSA UNIVERSITY (TIMUR),3.117021739,101.6497826
1004179,PJ251 UNIVERSITY TOWER,3.113503,101.650419
1003630,PJ252 SK SULTAN ALAM SHAH 2,3.112273,101.647177
1002142,PJ253 GERAK BUDAYA,3.111712,101.646397
1004272,PJ443 YAYASAN CANCERLINK,3.108473,101.645841
1001830,PJ343 LRT TAMAN BAHAGIA,3.110742933,101.6130193
1002952,PJ186 RUMAH NO 57,3.10785187,101.6112777
1006208,PETRONAS/SHELL (OPP),3.10816,101.60637
1006209,RUMAH NO 28,3.10945,101.60324
1006210,KUARTERS PDRM,3.10943,101.60006
1003347,PJ633 SMK KELANA JAYA,3.109053454,101.5960715
1001381,PJ331 HIGHPARK SUITES,3.101752623,101.6000244
1006211,PJ770 PANGSAPURI PKNS (OPP),3.102563,101.600384
1006212,DATARAN GLOMAC,3.10455,101.6003233
1002198,PJ506 PERUMAHAN PDRM (OPP),3.105075,101.600731
1003137,PJ513 WISMA REHDA,3.105184062,101.6065792
1006213,RUMAH NO 24,3.10305,101.606737
1000032,7 ELEVEN,3.10082939,101.6054062
1006214,RUMAH NO 159 (OPP),3.099316,101.60424
1006227,RUMAH NO 52,3.096950597,101.6049881
1006216,RUMAH NO 28,3.096366,101.6057627
1003501,YAYASAN TAIWAN BUDDIST (OPP),3.096114731,101.6070212
1001910,PJ183 PERUMAHAN SS 5B,3.100139,101.607028
1002914,PJ202 PERUMAHAN SS 3,3.101656,101.609481
1006217,PJ203 SMK SRI PERMATA,3.101638,101.613569
1003552,PJ340 PERUMAHAN SS 1,3.104662,101.616327
1002107,PJ341 SPG SS 1/32,3.108606,101.616488
1003411,PJ342 SMK TAMAN SEA (OPP),3.110045,101.616185
1006218,PJ187 RUMAH NO 107,3.104773,101.612841
1001134,PJ192 SMK SRI PERMATA (OPP),3.101495,101.614212
1002341,PJ194 PERUMAHAN SS 3,3.099624,101.610988
1000031,PJ195 KOMERSIAL SS 3,3.096785,101.610994
1002879,RUMAH NO 1,3.091518977,101.6111773
1002192,PJ559 PJ ECO RECYCLE PLAZA,3.088571,101.614094
1002167,PJ116 PUSAT KOMERSIAL PJ21,3.090166,101.614831
1002969,PJ334 RUMAH NO 9,3.093237,101.616548
1002933,PJ335 RUMAH NO 35,3.095271,101.617346
1003551,PJ111 SPG SS 1/1D,3.095649,101.618487
1004256,PJ112 WISMA SKPPK,3.092249,101.620683
1002817,PJ699 PBMM SJKC SG WAY (OPP),3.090235794,101.6207213
1003626,PJ113 SJKC SUNGAI WAY,3.08810561,101.6207767
1000837,PJ326 SEKSYEN 51A,3.088626,101.625297
1002331,PJ327 PADANG PERMAINAN,3.093704,101.627914
1003205,(M) PJ318 SHELL SEKSYEN 51A,3.096406,101.630603
1003403,PJ291 SMK SRI UTAMA,3.09848,101.632262
1000813,PJ720 BANGUNAN O'CONNOR (OPP),3.10025397,101.6321281
1000897,PJ747 SEKSYEN 51A (UTARA),3.101374,101.630668
1003414,PJ296 SMK (P) SRI AMAN,3.103313,101.629204
1006225,WISMA JAFER ZAIDI,3.106699,101.625504
1000820,GALAXY OPTICARE,3.108764731,101.6237629
1003232,PJ308 SHELL SEAPARK,3.109686,101.623135
1006226,PJ309 HERBALINE SEAPARK,3.111494,101.621716
1002049,PJ711 PETRON SEAPARK (OPP),3.11400256,101.6205749
1000639,PJ718 PETRON SEAPARK,3.111368,101.618785
1000909,(M) PJ530 HENTIAN BANDAR UTAMA,3.151359,101.613382
1000248,PJ532 ONE UTAMA LDP,3.150433653,101.6165242
1007490,PJ537 FIRST AVENUE,3.146518,101.615333
1008182,SMK BANDAR UTAMA (OPP),3.142478,101.615635
1008183,PELANGI UTAMA CONDOMINIUM,3.141615,101.615396
1008184,DATARAN PELANGI UTAMA,3.139342,101.614173
1008185,SETERRA CONDOMINIUM,3.137411,101.613321
1008187,MASJID AL-MAMURIAH,3.135404,101.61252
1000036,(M) PJ726 JEJANTAS DAMANSARA UTAMA,3.132385013,101.6216093
1001431,PJ723 JEJANTAS SS 22,3.132151819,101.6207217
1007130,PJ818 SMK DAMANSARA JAYA (OPP),3.130083,101.616811
1007495,PJ508 ATRIA (OPP),3.128946,101.617086
1002486,PJ509 DAMANSARA JAYA (TENGAH),3.128182,101.620429
1001246,PJ510 KDU COLLEGE,3.126934,101.622458
1001248,PJ627 KDU DAMANSARA JAYA,3.127656017,101.6233249
1002752,PJ581 PETRON SEAPARK,3.114403,101.621236
1004001,PJ626 BP SPECIALIST CENTRE,3.115653698,101.6141179
1007496,PJ484 KDU (OPP),3.126847,101.622267
1007128,PJ490 ATRIA,3.128542,101.617477
1007129,SMK DAMANSARA JAYA,3.131484,101.616654
1007494,10 BOULEVARD,3.132784,101.613496
1007493,BHP KAYU ARA,3.133002,101.611273
1007492,PETRON KAYU ARA,3.133325,101.611382
1007323,PJ780 MASJID KAYU ARA (OPP),3.135421,101.612393
1008186,SETERRA CONDOMINIUM (OPP),3.137216,101.61311
1007095,PJ781 PANGSAPURI PELANGI ARA (OPP),3.139109,101.613941
1007096,PJ782 SK BANDAR UTAMA DAMANSARA 2,3.14144,101.615209
1007097,PJ783 SMK BANDAR UTAMA,3.142768,101.615573
1007491,PJ536 FIRST AVENUE (OPP),3.146433,101.615092
1000990,PJ533 IKEA (BARAT),3.154912,101.610549
1007098,PJ814 MRT MUTIARA DAMANSARA PINTU C,3.156489,101.607885
1007471,PJ371 THE CURVE (OPP),3.157948,101.608719
1007473,PJ372 LOTUS MUTIARA DAMANSARA (OPP),3.159688,101.611884
1007474,PJ373 RITZE PERDANA,3.164513,101.611072
1002810,PJ375 PERDANA SHOPPING CENTRE,3.16759,101.606371
1007475,PJ817 PERDANA EXCLUSIVE CONDO,3.169401,101.605361
1002036,PJ377 METROPOLITAN SQUARE,3.166057758,101.6079794
1003243,PJ644 SOPHEA RESIDENCE,3.189981,101.617612
1007480,PJ21 BANDAR SRI DAMANSARA 8,3.189215,101.616229
1002796,KOMERSIAL SRI DAMANSARA,3.187211,101.615129
1003869,(M) PJ22 KOMERSIAL BANDAR SRI DAMANSARA 7,3.185369,101.613436
1007482,PJ23 SJKC DESA JAYA,3.185389,101.606998
1007484,PJ863 KOMERSIAL BANDAR SRI DAMANSARA,3.188383,101.605487
1007486,PJ864 SD APARTMENT,3.189776,101.605382
1007487,SK BANDAR SRI DAMANSARA,3.191209,101.605695
1001217,PJ31 MEDAN SELERA SRI DAMANSARA,3.19341,101.607121
1007105,PJ784 SPHERE DAMANSARA,3.198239,101.59916
1008657,PJ850 THE ZIZZ,3.198234,101.596464
1002782,PJ49 APARTMENT LESTARI,3.197343,101.594348
1002590,PJ52 APARTMENT IDAMAN,3.190686,101.592366
1000127,PJ53 APARTMENT IMPIAN,3.191978,101.588458
1000135,PJ54 APARTMENT PERMAI,3.194259,101.588235
1007488,PJ55 RESIDENSI SUASANA DAMAI (OPP),3.194511,101.591378
1002781,PJ62 APARTMENT LESTARI (OPP),3.197228,101.594008
1001218,PJ32 MEDAN SELERA SRI DAMANSARA (OPP),3.193598,101.607479
1008083,SK BANDAR SRI DAMANSARA (OPP),3.19075,101.60589
1007485,MAYBANK SRI DAMANSARA (OPP),3.188177,101.605813
1007483,PJ36 TAMAN CENTRAL SPINE SD,3.185258,101.607655
1003870,PJ37 BANDAR SRI DAMANSARA 7,3.185592,101.613301
1002795,KOMERSIAL SRI DAMANSARA (OPP),3.187535,101.614998
1007481,PJ38 BANDAR SRI DAMANSARA 8,3.189218,101.615927
1003242,PJ643 SOPHEA RESIDENCE (OPP),3.190264,101.617323
1007321,PJ380 NEO DAMANSARA,3.164177,101.611665
1007320,PJ381 LOTUS MUTIARA DAMANSARA,3.160333,101.612264
1007472,PJ382 THE CURVE,3.157901,101.609333
1007099,PJ809 MRT MUTIARA DAMANSARA PINTU B,3.155687,101.608187
1007489,PJ822 OASIS BANDAR UTAMA,3.150327,101.610151
1006026,SJ692 BRT USJ 7,3.05345,101.5918
1006027,SJ222 SK SEAFIELD,3.056616667,101.5884833
1006028,SJ408 SAM BESTARI,3.056616667,101.5816333
1002885,SJ41 PERUMAHAN USJ 3,3.059584514,101.5794692
1000787,(M) SJ45 PANGSAPURI SS19,3.067757045,101.5800783
1002512,SJ51 BALAI BOMBA SS17 (SELATAN),3.073486922,101.5839177
1006525,SJ52 LRT SS15,3.076001,101.585977
1003696,SJ59 SUBANG PARADE,3.081309,101.585004
1006524,SJ63 LRT SUBANG JAYA,3.084555,101.587181
1006029,EMPIRE GALLERY,3.081216667,101.58255
1002351,SJ48 WISMA CONSPLANT,3.080169,101.582523
1006030,PELITA SS15,3.074883333,101.5862
1003086,SJ592 BALAI BOMBA SS17 (OPP),3.072939,101.584061
1003666,SJ17 SS18,3.066983,101.580314
1003587,SJ18 USJ 2,3.059481,101.579814
1006031,SAM BESTARI (OPP),3.056866667,101.58175
1006022,SJ10 MENARA MPSJ (OPP),3.051537,101.583487
1006023,ROZEL USJ 10,3.0471,101.5839667
1006024,CITIBANK,3.047483333,101.5865333
1006025,SJ546 LRT TAIPAN,3.0482,101.5903833
1006168,SJ360 LRT BK 5,3.050473,101.643622
1006698,SMK SEKSYEN 1 BK,3.051575,101.643787
1006171,PADANG BOLA BK 2,3.053212,101.640134
1006699,PASAR TAMAN KINRARA 3,3.062746,101.637346
1000733,SJ321 APARTMENT KINRARA (OPP),3.066318,101.636094
1001234,SJ322 TAMAN MAWAR,3.064822,101.632372
1001030,SJ323 JASMINE COURT,3.063285,101.630505
1003342,SJ324 SMK BATU 8,3.061794,101.628852
1006683,APT SRI TANJUNG,3.061179,101.626526
1006681,IMPIAN HEIGHTS TOWER (OPP),3.064121,101.625285
1006679,SMK BANDAR PUCHONG JAYA,3.064709,101.622989
1006680,IMPIAN HEIGHTS TOWER,3.064268,101.625343
1006682,APT SRI TANJUNG (OPP),3.061323,101.626587
1003341,SJ313 SMK BATU 8 (OPP),3.061966,101.628941
1001029,SJ314 JASMINE COURT (OPP),3.063283,101.630361
1006684,REST DAY TO DAY,3.066986,101.631862
1006685,SPG TK 5/10,3.06731,101.631119
1002805,SJ315 TAMAN MAWAR,3.064898,101.632245
1000732,SJ316 APARTMENT KINRARA,3.066432,101.636847
1006700,99 SPEEDMART PUCHONG KINRARA,3.064624,101.637461
1003943,SJ334 TAMAN BUKIT KUCHAI,3.058474035,101.63896
1001269,SJ348 TUDM KINRARA (OPP),3.059714994,101.6427281
1004014,SJ338 KOMERSIAL PAIK SIONG,3.061362106,101.6455667
1006693,APT PALM TERRACE,3.063866,101.645537
1006694,KINRARA COURT,3.067965,101.648027
1006695,HONG LEONG BANK TK,3.066144,101.650001
1000025,(M) SJ345 JEJANTAS TAMAN KINRARA,3.064058087,101.6492756
1001396,SJ346 TAMAN PAIK SIONG,3.06144019,101.6464288
1001397,SJ347 TUDM KINRARA,3.059999482,101.6439583
1006696,PADANG BOLA BK 2 (OPP),3.053779,101.640334
1001689,SJ595 KTM KOMUTER SERDANG (OPP),3.024101963,101.7162185
1001690,(M) SJ596 KTM KOMUTER SERDANG,3.022872597,101.7164582
1001547,SJ107 KLINIK KERAJAAN SERI KEMBANGAN,3.02785,101.711256
1000420,SJ106 SOUTH CITY PLAZA (OPP),3.027164,101.710348
1006261,SJ109 BALAI POLIS SERI KEMBANGAN,3.024048,101.708811
1005352,SJ786 MRT SERDANG JAYA PINTU A,3.021584,101.709085
1006262,TAMAN KEMBANG SARI,3.019646,101.706902
1008023,SJ178 RUMAH SEJAHTERA SERI KEMBANGAN,3.019323,101.703885
1000501,SPG KE JLN 3/1,3.018239,101.706163
1001347,PERUMAHAN TAMAN SERDANG JAYA,3.015571,101.706794
1008021,MASJID SOLIHIN SERDANG JAYA (OPP),3.011735,101.706621
1008020,PERUMAHAN SERDANG JAYA,3.01056,101.707809
1000841,MEDAN SELERA SERDANG JAYA,3.011324,101.709152
1003275,SJKC SERDANG BARU 2,3.012652,101.709812
1001972,PERUMAHAN TAMAN SRI SERDANG,3.007934766,101.71217
1003402,SMK SERI SERDANG (OPP),3.006622,101.715244
1002305,KLINIK 1 MALAYSIA SRI SERDANG (OPP),3.006154,101.716481
1003710,KOMERSIAL SRI SERDANG,3.005195,101.717365
1001942,MASJID UPM (OPP),3.001702,101.718488
1000279,FAKULTI BAHASA DAN KOMUNIKASI,2.999981,101.714848
1001266,PINTU 16 UPM,2.998561,101.707637
1008019,MARDI (OPP),2.992081,101.704305
1000932,HOSPITAL SERDANG (OPP),2.974980168,101.7187434
1000658,FAKULTI PERUBATAN (OPP),2.975437762,101.7154937
1001864,MARDI,2.992278122,101.7039531
1001265,KOPERASI UPM,2.998675,101.707777
1001617,KOMPLEKS AKADEMIK A,3.000209,101.715242
1001956,MASJID UPM,3.001534,101.71823
1001371,KOMERSIAL SRI SERDANG,3.00502807,101.7172014
1002363,KLINIK 1 MALAYSIA SRI SERDANG,3.006056,101.716218
1003401,SMK SERI SERDANG,3.006724,101.715108
1001971,KOMERSIAL TAMAN SRI SERDANG,3.007623,101.712293
1003276,SJKC SERDANG BARU 2 (OPP),3.01287,101.710009
1000842,MEDAN SELERA SERDANG JAYA (OPP),3.011239,101.709235
1002963,PERUMAHAN SERDANG JAYA,3.01043,101.70748
1001367,MASJID SOLIHIN SERDANG JAYA,3.011845,101.706508
1001261,PERUMAHAN TAMAN SERDANG JAYA,3.015218,101.706515
1008018,TAMAN SERDANG JAYA,3.01814,101.70552
1001260,SJ172 RUMAH SEJAHTERA SERI KEMBANGAN,3.01947,101.703785
1002634,SJ624 KG BARU SERI KEMBANGAN,3.021554,101.704906
1002256,SJ177 PASAR SERI KEMBANGAN,3.023464482,101.7068483
1008022,SJ101 SOUTH CITY PLAZA,3.027393,101.710229
1001541,SJ175 KLINIK KESIHATAN/TAMAN MUHIBBAH,3.028255422,101.7114269
1003922,SJ640 THE MINES,3.027064,101.718933
1001801,(M) SL311 LRT GOMBAK,3.231094,101.724291
1000972,SL162 HUB UIA,3.251168,101.741528
1007531,SL152 UIAM (TIMUR),3.249705,101.738919
1000414,(M) SL153 KENMS,3.249177,101.736809
1000415,SL154 MAHALLAH SAFIYYAH,3.249358,101.734785
1000408,SL155 UIAM (SELATAN),3.249573445,101.7337746
1000405,SL156 KAED UIAM,3.250626257,101.7312569
1000409,SL157 KULIYAH ENGINEERING UIAM,3.254295868,101.7321463
1000410,SL158 KULIYAH EDUCATION UIAM,3.254194235,101.7334702
1000413,SL159 UIAM (UTARA),3.254087,101.734346
1000411,SL160 IRKHS,3.25305166,101.7359553
1000412,SL161 PERPUSTAKAAN UIAM,3.252231822,101.7385644
1001321,KL153 FLAT TAMAN MELATI A9,3.226889,101.725241
1003903,KJ461 HENTIAN KAJANG,2.95700425,101.7917194
1002571,KJ462 PLAZA PERABOT,2.961152,101.792062
1003224,KJ463 SHELL,2.964600464,101.7909644
1006251,KJ451 SJK (T) WEST COUNTRY,2.965352,101.788903
1006249,SENG HENG,2.965467,101.780922
1006247,TASKA BESTARI SEK 8,2.968784,101.772868
1006245,99 SPEEDMART SEK 7 (OPP),2.971535,101.773478
1006312,PINTU 3 SK SEK 7,2.970502,101.774785
1006313,JPJ BANGI (OPP),2.968574,101.775248
1006314,RUMAH NO 17,2.96817,101.777421
1006315,PANGSAPURI SERI TANJUNG (OPP),2.968784,101.780438
1006316,INTANA RIA (OPP),2.970096,101.78063
1006241,SURAU AL ISLAH,2.972848,101.779703
1006317,99 SPEEDMART KJG MEWAH,2.975796,101.780369
1006239,JING AN MEMORIAL VILLAGE,2.977431,101.780722
1006237,TMN KOPERASI LLN (OPP),2.979689,101.780663
1006235,TMN KAJANG INDAH,2.985456,101.779206
1006233,FLAT SRI SAGA (OPP),2.988415,101.778013
1006079,KJ172 WINNIE PLAZA (OPP),2.990825,101.78033
1007233,KJ822 MRT STADIUM KAJANG,2.994009,101.78641
1008068,SMJKC YU HUA (OPP),2.996792,101.790922
1004267,KJ506 PEJABAT AIR SELANGOR,2.992459,101.793035
1001750,KJ507 KOMERSIAL BANDAR KAJANG,2.992967,101.790135
1004231,KJ508 PEKAN KAJANG,2.991911,101.787865
1006064,KJ644 WINNIE PLAZA,2.990711,101.780377
1006232,FLAT SRI SAGA,2.988491,101.778122
1006234,PEARL AVENUE,2.985275,101.779403
1006236,TMN KOPERASI LLN,2.979613,101.78079
1006238,TMN SRI KEJORA,2.977745,101.780896
1006318,99 SPEEDMART KJG MEWAH (OPP),2.975737,101.780491
1006240,SURAU AL ISLAH (OPP),2.972804,101.779891
1006319,INTANA RIA,2.970123,101.780749
1006320,PANGSAPURI SERI TANJUNG,2.968668,101.780551
1006321,RUMAH NO 24,2.968032,101.777446
1006322,JPJ BANGI,2.96836,101.77515
1006323,PINTU 3 SK SEK 7 (OPP),2.970483,101.774694
1006244,99 SPEEDMART SEK 7,2.971453,101.773123
1006246,WISMA CK RAHIM,2.970108,101.772791
1006248,SEK 4 TAMBAHAN,2.965731,101.781044
1006250,KJ450 REKO SENTRAL,2.965787,101.789334
1003225,KJ208 SHELL (OPP),2.963936,101.791419
1002572,KJ209 PLAZA PERABOT (OPP),2.960963,101.792391
1003343,KOMERSIAL BUKIT MAHKOTA,2.870537,101.813438
1008190,BUKIT MAHKOTA CLUBHOUSE SEKSYEN 6,2.873758,101.808645
1008191,PINTU A PERUMAHAN BUKIT MAHKOTA (OPP),2.877296,101.808991
1006960,APARTMENT NURI (OPP),2.88132,101.807285
1006958,SEKSYEN 3 BANDAR BUKIT MAHKOTA,2.882819,101.801169
1006956,BANYAN CLOSE,2.883335,101.794186
1006964,PUSAT KOMERSIAL BANDAR SRI PUTRA,2.88633,101.791166
1006954,MASJID BANDAR SERI PUTRA,2.887669,101.787822
1006949,SMK BANDAR SERI PUTRA (OPP),2.886316,101.78515
1006947,PANGSAPURI SERI MELATI (OPP),2.88767,101.779064
1006965,PANGSAPURI ACACIA (OPP),2.889175,101.777885
1006945,SK BANDAR SERI PUTRA (OPP),2.889084,101.775924
1006943,APARTMENT CAMELLIA,2.893537,101.773046
1006941,TAMAN BANGI VILLA (OPP),2.898844,101.778912
1006939,DEWAN BANGI,2.901213,101.781081
1008058,DEWAN PEKAN BANGI,2.901426,101.780777
1008059,SK BANGI,2.904556,101.784278
1006935,KTM BANGI,2.90316,101.785349
1006936,PASAR BANGI LAMA,2.900647,101.782894
1006938,DEWAN BANGI (OPP),2.901202,101.781252
1006940,TAMAN BANGI VILLA,2.898779,101.779041
1006942,TAMAN IMPIAN PUTRA,2.894693,101.774376
1006944,SK BANDAR SERI PUTRA,2.889108,101.775718
1006946,PANGSAPURI ACACIA,2.889262,101.777987
1006950,PUSAT PERNIAGAAN SRI PUTRA,2.8871907,101.779635
1006948,SMK BANDAR SERI PUTRA,2.886552,101.784861
1006953,MASJID BANDAR SERI PUTRA (OPP),2.887891,101.78768
1006951,PUSAT KOMERSIAL BANDAR SRI PUTRA,2.886509,101.791356
1006955,BANYAN CLOSE,2.883463,101.794747
1006957,SEKSYEN 3 BANDAR BUKIT MAHKOTA,2.883064,101.801179
1006959,APARTMENT NURI,2.881568,101.807391
1006961,SEKSYEN 5 BANDAR BUKIT MAHKOTA,2.873597,101.814896
1007176,MRT BTHO,3.04907,101.774434
1003179,APARTMENT NETIZEN,3.049629,101.772007
1002469,PETRONAS CHERAS PERDANA (OPP),3.047857,101.768725
1002213,TAMAN CHERAS PERDANA FASA 2,3.046260197,101.7679759
1006997,SMK CHERAS PERDANA (OPP),3.043947,101.766412
1006998,TAMAN CHERAS PERDANA FASA 3,3.041742,101.765086
1006755,TAMAN CHERAS PERDANA FASA 7,3.037232,101.762309
1006754,KJ334 AEON CHERAS SELATAN,3.033446,101.762818
1000184,PUSAT KOMERSIAL C180,3.034846,101.766009
1006999,PANGSAPURI SUAKASIH,3.03778,101.758212
1008000,PERUMAHAN SUADAMAI,3.04998,101.754825
1008001,SK BTHO 2,3.052803,101.754999
1008002,SMK BTHO 2,3.054078,101.755786
1008004,PETRONAS BTHO 2,3.054724,101.757973
1006757,APARTMENT MINANG RIA,3.056474,101.757437
1008005,PANGSAPURI SERI MURNI,3.060348,101.757403
1008006,SRA TAMAN TUN PERAK (OPP),3.062087,101.758338
1008007,PANGSAPURI WIRA,3.063197,101.758677
1009040,KJ884 KOMERSIAL SEKSYEN 4,2.964498,101.781744
1009042,KJ885 SMK JALAN EMPAT,2.961828,101.781703
1009054,JALAN 4/5D,2.960752,101.778165
1009052,SURAU AL-KAUTHAR,2.957815,101.779375
1009050,PANGSAPURI ANGGUN (OPP),2.955564,101.779835
1009055,SURAU JUBLI PERAK AL-IKHWAN (OPP),2.953705,101.779201
1009044,KJ926 SK JALAN EMPAT (OPP),2.951478,101.779993
1009031,PERUMAHAN SEKSYEN 3,2.949072,101.781076
1009034,BANGI PERDANA SEKSYEN 3,2.944911,101.780992
1009036,SURAU ABDUL RAHMAN  SEKSYEN 3,2.941271,101.781455
1009038,PANGSAPURI DAMAI RESIDENCE,2.938449,101.780542
1008154,KJ513 BANDAR BARU BANGI SEKSYEN 2 (SELATAN),2.939188,101.768608
1006190,KJ514 PANGSAPURI SRI CEMPAKA,2.941284,101.767344
1006191,KJ515 PETRONAS SEKSYEN 16,2.944432,101.765292
1006198,KJ525 KOMPLEKS PENTADBIRAN HULU LANGAT,2.956146,101.757689
1006086,MAHKAMAH SYARIAH BANGI,2.95919,101.75429
1006087,PETRONAS SEKSYEN 9 BANGI,2.96132,101.75156
1006089,KJ429 KOMERSIAL SEKSYEN 8 BANDAR BARU BANGI,2.962555,101.757129
1006090,SEKSYEN 6 PUNCAK BANGI,2.96204,101.761169
1006091,KJ516 BANDAR BARU BANGI SEKSYEN 2 (UTARA),2.944499,101.765586
1008153,KJ519 PANGSAPURI SRI CEMPAKA,2.941203,101.767719
1006062,KJ520 BANDAR BARU BANGI SEKSYEN 2 (SELATAN),2.938104,101.769635
1009039,BANGI MUNAWWARAH,2.938383,101.780255
1009037,SURAU ABDUL RAHMAN SEKSYEN 3 (OPP),2.941554,101.781346
1009035,BANGI PERDANA SEKSYEN 3,2.944562,101.780898
1009033,SURAU BANGI PERDANA,2.947434,101.780886
1009032,PERUMAHAN SEKSYEN 3,2.948703,101.780948
1009045,KJ918 SK JALAN EMPAT,2.951387,101.779617
1009048,KJ920 SURAU JUBLI PERAK AL-IKHWAN,2.953822,101.779138
1009049,KJ921 PANGSAPURI ANGGUN,2.955532,101.779691
1009051,KJ922 PETRONAS UNIKEB 2,2.957885,101.779211
1009053,KJ923 JALAN 4/3,2.960731,101.778052
1009043,KJ930 SMK JALAN EMPAT (OPP),2.961778,101.781593
1009041,KJ931 KOMERSIAL SEKSYEN 4,2.964379,101.781638
1009142,HONG LEONG PBD,3.146016,101.660931
1006170,KL2324 LRT AWAN BESAR,3.061769,101.669737
1009056,PAVILION BUKIT JALIL,3.050022,101.673645
1000456,SJ60 AEON BIG SUBANG JAYA,3.082119,101.587966
1001513,SJ637 CASA TIARA SUITE,3.082133,101.591204
1002024,SJ64 SUBANG JAYA MEDICAL CENTRE,3.079771,101.593222
1003280,SJ2 SIME DARBY HEALTH CARE,3.077851,101.593269
1000523,PJ229 KOMPLEKS 3C (OPP),3.073384,101.601469
1003708,PJ294 SUNWAY CLIO (OPP),3.07372255,101.603559
1008430,PJ561 SUNWAY PYRAMID (OPP),3.074113,101.605891
1001873,(M) PJ614 MASJID AL-HUSNA,3.074256,101.608951
1000729,PJ164 ARENA SELERA LINDUNGAN,3.076672,101.616129
1001435,PJ165 KOMERSIAL LINDUNGAN,3.078261,101.615607
1001434,PJ167 KAMPUNG LINDUNGAN,3.079886,101.615617
1001670,PJ168 PETRONAS DESA MENTARI (OPP),3.081834,101.618196
1000550,PJ169 TAMAN DESARIA,3.082724,101.620879
1001409,(M) PJ170 MENARA ANN JOO (OPP),3.084266,101.623261
1003685,PJ731 KTM KG DATO HARUN (UTARA),3.084208,101.633581
1002254,PJ733 TAMAN MAJU JAYA,3.083154508,101.6406288
1000943,PJ734 TAMAN PETALING UTAMA,3.081794,101.649809
1001122,KL2155 SEKSYEN 18 (TIMUR),3.082454,101.658486
1003259,KL1799 PETALZ RESIDENCE,3.083515,101.661221
1000633,KL1393 PETRON BT 5 3/4,3.083148,101.663188
1000200,KL1394 SKYVILLE 8,3.082038,101.665697
1000730,KL1271 TAMAN YARL (UTARA),3.082331319,101.6682884
1000506,KL1272 PEARL POINT,3.084468,101.671892
1002401,KL1274 ROZEL,3.087139,101.673633
1002575,KL1267 PLAZA PRIMA,3.089010952,101.6743554
1004262,KL1268 WISMA TEOH CHIN KEE,3.086635571,101.6738823
1002195,(M) KL1269 PEARL POINT,3.083590452,101.6711904
1003077,KL1270 TAMAN YARL (UTARA),3.082005,101.668566
1001325,KL1365 SKYVILLE 8 (OPP),3.082078,101.664858
1003260,KL1798 BINASTRALAND,3.083261,101.661574
1002021,KL2154 SEKSYEN 18,3.082399,101.659428
1000429,PJ736 TAMAN PETALING UTAMA,3.081432,101.653433
1000942,PJ737 FLAT TAMAN PERANSANG,3.081437871,101.648319
1000528,PJ739 TAMAN DATO HARUN,3.083589508,101.635279
1003570,PJ741 DESA MENTARI FASA 4 (UTARA),3.084377828,101.6281165
1001257,(M) PJ153 MENARA ANN JOO,3.083862,101.622918
1000549,PJ157 TAMAN DESARIA (BARAT),3.081729,101.618498
1001669,PJ358 KONTENA NASIONAL,3.081148,101.615187
1001437,PJ622 PERUMAHAN PJS 6,3.079853,101.613795
1003709,(M) PJ615 SUNWAY PYRAMID,3.073588,101.605895
1000522,PJ617 KOMPLEKS 3C,3.072993,101.600748
1003140,SJ54 SERI KUALA LUMPUR,3.076459,101.592849
1003279,SJ55 SUBANG JAYA MEDICAL CENTRE,3.079767,101.592874
1002020,SJ56 KOMERSIAL SS15,3.081837445,101.5908247
1000457,SJ57 AEON BIG SUBANG JAYA (OPP),3.081844,101.588307
1003695,(M) SJ58 SUBANG PARADE (OPP),3.081297896,101.5856023
1000646,(M) SJ49 PETRON SS 17,3.079421,101.581514
1003087,SJ47 PERUMAHAN SS 19,3.078881,101.577188
1006286,SJ735 LRT PUSAT BANDAR PUCHONG,3.033481,101.61616
1001010,(M) SJ610 IOI MALL PUCHONG,3.043554574,101.6187393
1006674,SJ11 SUNWAY LAGOON CLUB,3.068334,101.610586
1006675,SJ12 BRT SUNWAY LAGOON/SUNWAY METRO,3.071569,101.610588
1000846,SJ697 INTI SUBANG JAYA (OPP),3.072972,101.592328
1006676,SJ716 LRT SS18,3.068008,101.585925
1002598,SJ594 INTI/POS MALAYSIA SS15,3.073366392,101.5909986
1001436,SJ553 USJ 7 (SELATAN),3.067665,101.615318
1008431,SJ558 PJS 7 (UTARA),3.068101,101.615804
1004119,SJ559 SUNWAY COURT (OPP),3.070607,101.615779
1000460,SJ560 PERINDUSTRIAN PJS 7,3.072809,101.615806
1006678,SJ447 SKYPOD RESIDENCE,3.043501,101.620776
1001784,PJ436 LRT ASIA JAYA,3.104547804,101.63843
1001578,PJ267 PLAZA 33,3.110434495,101.6388357
1000471,PJ268 PJ MIDTOWN,3.113255,101.641136
1000650,PJ269 NISSAN SERVICE PJ,3.116491,101.643032
1000467,PJ239 PUSAT ASASI UIA,3.119615,101.643201
1000603,PJ619 EASTIN HOTEL,3.127502,101.645319
1007136,(M) PJ823 MRT PHILEO DAMANSARA PINTU A,3.128421,101.642747
1001707,PJ620 KG SERI DAMANSARA,3.131587,101.631946
1005765,PERUMAHAN SEKSYEN 17/26,3.128111,101.630067
1005766,PERUMAHAN SEKSYEN 17/21I,3.126167,101.629825
1005768,THE HUB SS2,3.123977,101.629384
1005767,PANGSAPURI DAMANSARA BISTARI,3.122104,101.629143
1005769,KOMERSIAL SEKSYEN 17/45,3.119964,101.629679
1008646,PJ713 MENARA AM FIRST,3.118036,101.629488
1001077,PJ246 MAHSA AVENUE,3.118239,101.648064
1002619,PJ248 PPUM MAIN GATE,3.114452395,101.6510024
1008434,PJ254 CONDOMINIUM EHSAN RIA,3.109897,101.644861
1003857,PJ441 TASIK TAMAN JAYA,3.103962,101.648321
1006035,PJ84 PJ WALK,3.100201666,101.6452966
1001509,(M) PJ435 WISMA MCIS,3.101044,101.641252
1000959,SL283 DATARAN BANDAR BARU SELAYANG,3.255694,101.657104
1008668,SL287 STADIUM MPS (BARAT),3.254584,101.656382
1003159,SL288 BULATAN BERINGIN SELAYANG,3.250878,101.657971
1003826,SL289 TAMAN SELAYANG SEGAR,3.251781,101.660001
1003516,SL290 TAMAN SELAYANG INDAH,3.249568,101.662934
1002097,SL37 SELAYANG BARU (BARAT),3.249922,101.664378
1002288,SL536 SELAYANG BARU (UTARA),3.250902,101.666458
1001317,SL43 PERUMAHAN SELAYANG BARU,3.250014,101.670495
1001336,SL44 BALAI POLIS SELAYANG BARU (OPP),3.248185,101.671422
1002289,SL34 GIANT SELAYANG,3.246619,101.671394
1002355,SL538 POS MALAYSIA SELAYANG,3.244932,101.669223
1000735,SL539 FLAT PASAR BORONG,3.241042,101.668447
1004215,KL840 TAMAN SRI SELAYANG,3.235604,101.671683
1001398,KL1498 KOMERSIAL KIP (OPP),3.224205,101.671929
1004087,(M) KL1505 KTM TAMAN WAHYU,3.215039,101.672071
1001633,KL588 TAMAN KOK LIAN/ PPR PEKAN BATU,3.202983,101.672999
1003379,KL598 SK KAMPUNG BATU,3.201994,101.676612
1001966,KL599 TAMAN IMPIAN,3.200533,101.677558
1000401,KL600 BATU KENTOMEN,3.197445,101.679383
1002536,KL601 TAMAN RAINBOW,3.194458,101.679934
1002535,KL602 TAMAN KAYA,3.191318,101.680711
1005100,KL1578 MRT JALAN IPOH PINTU B,3.189311,101.681467
1003386,KL603 SMK (P) JLN IPOH (OPP),3.187823,101.682087
1005102,KL604 BATU COMPLEX BUSINESS CENTRE,3.184283,101.681568
1002532,KL605 TAMAN MILLION,3.182668,101.681709
1001414,(M) KL606 RIVERWALK VILLAGE,3.180072,101.683532
1005118,KL607 MRT SENTUL BARAT PINTU C,3.179103,101.684876
1000949,KL608 HOTEL TROPICANA,3.176957,101.687597
1002528,KL609 SMK SENTUL UTAMA,3.174777,101.690071
1002414,KL2249 PERKIM,3.171261,101.693485
1000514,KL50 DAMAI HOSPITAL,3.169987,101.695148
1003247,(M) KL52 MONORAIL CHOWKIT,3.167932,101.697641
1000477,KL69 PASAR CHOW KIT,3.164907581,101.6983821
1004169,KL70 SRI AMAR,3.162104568,101.6979986
1002359,KL71 KOMERSIAL TAR,3.161247553,101.6976137
1001853,KL35 MAJU JUNCTION,3.159284497,101.6967226
1001629,KL36 KOMPLEKS PERTAMA,3.157889,101.696133
1000875,KL37 GLOBE KL,3.155153653,101.6964078
1000502,KL38 COLISEUM,3.152992873,101.6966014
1000521,KL114 DATARAN MERDEKA,3.149162,101.694376
1000047,KL1934 MUZIUM TEKSTIL NEGARA,3.147136,101.69481
1006277,KL103 MAYBANK,3.14694,101.69683
1002080,KL113 HAB LEBUH PUDU,3.146744,101.698695
1004240,KL1939 MEDAN PASAR,3.148202,101.696375
1000383,KL117 BSN LEBUH AMPANG,3.149245404,101.6973718
1003683,KL30 AMANAHRAYA,3.151912601,101.6979981
1000823,(M) KL31 HENTIAN MUNSHI ABDULLAH,3.1532583,101.6984843
1002560,(M) KL32 CAPSQUARE,3.154652239,101.6983747
1003415,(M) KL1940 SOGO KL,3.15677881,101.6953584
1001984,KL40 MEDAN MARA,3.157724,101.694556
1003257,KL41 LRT SULTAN ISMAIL/WISMA SIME DARBY,3.162154,101.695526
1002694,KL42 EDC HOTEL,3.165085,101.696133
1001418,KL46 CHOWKIT/KFC (BARAT),3.167208,101.696275
1002537,KL47 DAMAI HOSPITAL (OPP),3.169272,101.695689
1002413,KL49 PERKIM/PUSRAWI,3.171001,101.693422
1002022,KL578 TAMAN GOLDEN,3.174173,101.690357
1001710,KL579 SK SRI DHANDAYUTHAPANI,3.176318,101.688001
1005139,(M) KL1580 MRT SENTUL BARAT PINTU B,3.178238,101.685753
1002529,KL580 RIVERCITY 3RD MILE,3.180075,101.683043
1002530,KL581 BATU COMPLEX BUSINESS CENTRE,3.183872,101.681078
1003385,KL583 SMK (P) JLN IPOH,3.187494,101.681611
1001626,KL584 KOMPLEKS MUTIARA,3.188964,101.680933
1002533,KL585 MRT KENTOMEN PINTU B,3.194339,101.679474
1002534,KL586 KOMPLEKS MIKASA,3.198519,101.678381
1001253,KL1577 SK KAMPUNG BATU (OPP),3.201914,101.676269
1001634,KL587 KOMERSIAL KOK LIAN,3.202668,101.673614
1004086,KL565 KTM TAMAN WAHYU (OPP),3.214823,101.671769
1003909,(M) KL566 LOTUS SELAYANG,3.222303,101.671636
1008667,KL2247 KOMERSIAL KIP,3.224288,101.671585
1004214,KL567 TAMAN SRI SELAYANG,3.235105,101.671394
1004213,KL569 TAMAN DESA BAKTI,3.242992,101.662831
1000427,SL531 SELAYANG PANDANG,3.244594,101.658687
1008666,SL532 SELAYANG PANDANG,3.245313,101.658162
1008665,SL533 POS MALAYSIA SELAYANG (OPP),3.244942,101.669029
1002191,SL55 GIANT SELAYANG,3.246598,101.671185
1000198,SL45 BALAI POLIS SELAYANG BARU,3.248103,101.671316
1002098,SL46 PERUMAHAN SELAYANG BARU,3.251207,101.669677
1000007,SL51 SELAYANG BARU (UTARA),3.250971,101.666894
1003138,SL52 SELAYANG BARU (BARAT),3.249764,101.664336
1007619,SL291 TAMAN SELAYANG INDAH,3.249575,101.662586
1001067,SL292 TAMAN SELAYANG SEGAR,3.251495,101.659824
1003160,SL293 BULATAN BERINGIN,3.250406,101.658164
1000368,SL524 BOMBA BANDAR SELAYANG,3.254808,101.655816
1007614,SL266 SELAYANG 18 RESIDENCES,3.255311,101.654675
1003162,SL282 SELAYANG 18 RESIDENCES (OPP),3.255524,101.654888
1008024,ECONSAVE BANTING,2.812005,101.506457
1008025,STESEN BAS BANTING,2.812327,101.502269
1008026,SPG JLN KEMBOJA 15,2.807698,101.500398
1008027,IPD KUALA LANGAT (OPP),2.804882,101.494917
1008028,PEJABAT MDKL,2.803772,101.496001
1008029,MEDAN SELERA MDKL,2.803143,101.497806
1008030,TAMAN KEMUNING,2.80263,101.499276
1008031,KG SG LANG,2.797989,101.493662
1008032,SHENG LEONG CYCLE,2.799865,101.492586
1008033,HOSPITAL BANTING,2.802581,101.493712
1008034,IPD KUALA LANGAT,2.805828,101.495044
1008060,SJKC CHOONG HUA,2.807198,101.498096
1008061,RESTORAN NAFIH,2.811125,101.501598
1008062,7 ELEVEN BANTING,2.812761,101.500472
1008035,MYCINEMA BANTING,2.812001,101.497041
1008038,MASJID AT-TAQWA BANTING,2.81117,101.491958
1008039,TAMAN MULIA,2.811816,101.490344
1008041,TAMAN SERI PUTRA,2.813293,101.486708
1008042,SPG JLN SERDANG BELAH,2.815634,101.481094
1008045,IKBN KUALA LANGAT (OPP),2.819256,101.471548
1008047,ILP KUALA LANGAT (OPP),2.81922,101.463654
1008049,SK JUGRA (OPP),2.819161,101.455971
1008051,BANDAR BANTING BARU,2.817379,101.454654
1008052,KG SG RABA,2.820547,101.44684
1008053,KOLEJ MATRIKULASI SELANGOR,2.823137,101.444143
1008054,KG KATHONG,2.826557,101.440588
1008063,TAMAN DESA PERMATANG JAYA,2.829783,101.43741
1008064,PEKAN PERMATANG PASIR,2.829783,101.43741
1008065,PEKAN CHODOI,2.841812,101.441148
1008066,TAMAN CHODOI BESTARI,2.843904,101.444766
1008055,SM SAINS BANTING,2.827845,101.44786
1008056,KUARTERS TUDM,2.824435,101.449289
1008057,REJIMEN TUDM,2.82063,101.450658
1008050,SK JUGRA,2.819281,101.456218
1008048,ILP KUALA LANGAT,2.81946,101.463326
1008046,IKBN KUALA LANGAT,2.819503,101.471632
1008043,SPG JLN SERDANG BELAH,2.816309,101.479818
1008044,MADINA SEAFOOD,2.812899,101.487983
1008040,KLINIK 1MALAYSIA BANTING,2.811715,101.490914
1008036,PPD KUALA LANGAT,2.811896,101.495725
1008067,AEON CREDIT BANTING,2.81267,101.498795
1008037,INDAH PESONA,2.813592,101.502695
1002132,SL294 HAB WIRA DAMAI,3.251574,101.684494
1000881,SL182 PANGSAPURI KENANGA,3.251424,101.686069
1002373,SL183 PANGSAPURI CEMPAKA,3.251457,101.689126
1001532,SL184 KG MELAYU WIRA DAMAI,3.250418,101.691821
1003607,SL309 PANGSAPURI SAUJANA GOMBAK,3.250452,101.693143
1003754,SL192 FLAT TAMAN PINGGIRAN,3.250371,101.694328
1003862,SL194 PERUMAHAN SRI GOMBAK FASA 9,3.249295,101.699456
1003557,SL195 TAMAN TASIK SRI GOMBAK,3.248852,101.701464
1002447,SL196 PERUMAHAN TAMAN SRI GOMBAK (TIMUR),3.250062,101.703093
1003559,SL197 TASIK SRI GOMBAK FASA 8,3.248663,101.705594
1001951,SL504 MASJID SRI GOMBAK,3.247016,101.702752
1003439,SL198 TAMAN SRI GOMBAK,3.244994,101.702122
1001585,SL246 KOMERSIAL SRI GOMBAK,3.243098,101.703912
1001867,SL247 TAMAN SRI GOMBAK FASA 3,3.243095,101.706028
1003376,SL237 SMK HILLCREST,3.243059,101.707329
1002928,SL238 KOMERSIAL SERI GOMBAK FASA 5,3.2421279,101.7097443
1000217,SL239 BALAIRAYA SERI GOMBAK,3.240744,101.708129
1002474,SL248 PETRONAS SRI GOMBAK,3.240665,101.703324
1003882,(M) SL249 URBAN 360,3.240625,101.701315
1000555,SL207 DEWAN BERINGIN GOMBAK (OPP),3.239821788,101.6997026
1000863,SL250 GIANT BT CAVES (OPP),3.235202802,101.6955325
1003592,SL251 METRO TABERNACLE (OPP),3.23300615,101.6945991
1000579,SL252 HENTIAN SAMUDERA BARAT,3.233073662,101.6912316
1001756,SL253 WISMA SBC (OPP),3.233088611,101.6894339
1000002,SL254 PERINDUSTRIAN BT CAVES,3.233602513,101.6871332
1001364,SL255 BT CAVES INDUSTRIAL PARK,3.23360087,101.6847056
1001507,SL256 PERINDUSTRIAN SBC,3.231241284,101.6845567
1004103,KL631 TAMAN BATU MUDA (TENGAH),3.228024,101.68612
1003009,KL632 TAMAN BATU MUDA (TIMUR),3.228132,101.688189
1004271,(M) KL633 RAUDHATUL SAKINAH,3.226651,101.689353
1001591,KL634 IIC/PICOMS (OPP),3.223155,101.689429
1003996,KL636 TAMAN KOPERASI POLIS,3.220635,101.689417
1002664,KL638 FIT CENTRE,3.21544523,101.6894337
1003373,KL639 SMK BATU MUDA (OPP),3.211631,101.689436
1001163,CENTURA SENTUL,3.204097,101.689384
1003625,KL642 SJKC PENG MING,3.196942,101.690959
1000638,KL2063 SPG DATO SENU,3.194598743,101.6910257
1000770,KL643 MASJID AL-HIDAYAH SENTUL,3.19207346,101.6910158
1002171,KL644 PANGSAPURI SENTUL UTARA,3.190131,101.691354
1003168,KL645 SENTUL BOULEVARD (UTARA),3.186028681,101.692489
1003169,KL647 FENNEL SENTUL,3.183666,101.694169
1003515,KL2065 CAPERS SENTUL,3.181731,101.693202
1000573,KL665 SJKC SENTUL KL,3.179894,101.692594
1001524,KL665 SJKT SENTUL,3.176864722,101.6929405
1000785,KL666 PERUMAHAN AWAM SERI TERENGGANU,3.175153743,101.6931427
1002053,MONOREL CHOW KIT,3.16758555,101.6982345
1003299,SKPK LELAKI JLN BATU,3.159643,101.694843
1002415,KL47 PICOMS,3.170419997,101.6941562
1001329,KL610 IPD SENTUL,3.174349716,101.6925361
1000784,KL2050 FLAT SRI TERENGGANU,3.17566429,101.6929015
1001523,KL2051 WISMA HEALTH LANE,3.178321,101.692506
1003167,KL613 SENTUL BOULEVARD (BARAT),3.184357,101.691806
1003375,KL615 SMK CONVENT SENTUL,3.185997,101.691514
1002170,KL616 PASAR SENTUL,3.188646,101.691164
1000769,KL617 SK SENTUL 2,3.191789925,101.6907882
1000637,KL2053 BHP SENTUL (OPP),3.194063,101.690715
1003624,KL1500 SJKC SENTUL PENG MING (OPP),3.197294,101.690691
1001162,SENTUL VILLAGE,3.203693,101.689151
1001164,KL1502 SMK BATU MUDA,3.211083242,101.6891853
1000174,KL620 ASRAMA PUTRI DESA VIEW,3.213965,101.689181
1003995,TMN KOPERASI POLIS,3.21940045,101.6892036
1001590,(M) KL624 IIC/PICOMS,3.223146,101.689189
1004270,(M) KL625 GIATMARA BATU MUDA,3.226716,101.689114
1003042,KL626 TAMAN BATU MUDA (TIMUR),3.227983,101.688207
1003008,KL627 TAMAN BATU MUDA,3.227896,101.686728
1001365,SL260 BT CAVES INDUSTRIAL PARK 5 (BARAT),3.233728,101.684984
1002362,SL261 PERINDUSTRIAN BT CAVES,3.233791329,101.6877546
1001168,SL263 FLAT TAMAN SRI BATU,3.233232,101.691834
1003594,SL264 SK TAMAN SAMUDERA,3.233190441,101.6938721
1000862,SL265 GIANT BT CAVES,3.235027536,101.695373
1000480,CIMB,3.237747092,101.6995179
1000554,SL176 DEWAN BERINGIN GOMBAK,3.239955917,101.6994178
1003881,SL235 URBAN 360 (OPP),3.240734,101.701382
1000216,SL236 PETRONAS SRI GOMBAK (OPP),3.240782,101.703325
1003500,(M) SL503 TAMAN SRI GOMBAK FASA 4 (BARAT),3.240822,101.707059
1002956,SL242 KOMERSIAL SERI GOMBAK FASA 5,3.241993,101.709589
1003377,SL243 SMK HILLCREST (OPP),3.242916,101.707509
1001866,SL244 TAMAN SRI GOMBAK FASA 3,3.242985,101.705851
1002583,SL245 KOMERSIAL TAMAN SRI GOMBAK,3.242964,101.703227
1001916,SL199 TAMAN SRI GOMBAK FASA 6,3.244748,101.702019
1001950,SL505 MASJID SRI GOMBAK (OPP),3.247365,101.703085
1003560,SL200 TASIK SRI GOMBAK FASA 8,3.248616,101.705428
1003796,SL201 PERUMAHAN TAMAN SRI GOMBAK (TIMUR),3.250064,101.703258
1003556,SL202 TAMAN TASIK SRI GOMBAK,3.248729,101.701441
1003779,SL203 PERUMAHAN SRI GOMBAK FASA 9,3.249251877,101.6992055
1003868,SL204 TAMAN SERI GOMBAK FASA 10,3.249353,101.697156
1003743,SL177 FLAT PINGGIRAN,3.250229363,101.6942894
1002380,SL178 KG MELAYU WIRA DAMAI,3.250299,101.693129
1000895,SL179 KG MELAYU WIRA DAMAI,3.250272,101.691855
1000141,SL180 APARTMENT SAUJANA,3.251327,101.688986
1000880,SL181 PANGSAPURI KENANGA (OPP),3.251065,101.685414
1003078,(M) SA786 HENTIAN BANDAR SEKSYEN 14,3.072442749,101.5213523
1008399,SA855 WISMA MBSA (OPP),3.072952,101.520611
1008075,SA854 KOMPLEKS PKNS SHAH ALAM,3.072057,101.51693
1006643,SA856 WISMA MBSA,3.073127,101.519848
1000936,SA19 GRAND BLUEWAVE,3.073544,101.522647
1006644,SA367 DATARAN KEMERDEKAAN,3.076122,101.524897
1006645,MASJID NEGERI,3.079776,101.522872
1006646,PLAZA SHAH ALAM,3.084918,101.524087
1006648,SA48 KOMERSIAL SEKSYEN 9,3.0817,101.527199
1008077,DEWAN JENJAROM (OPP),3.077527,101.529932
1006649,PUSAT AKUATIK SEKSYEN 13,3.07289,101.537945
1006650,SA255 PUSAT KOMERSIAL WORLDWIDE (OPP),3.072882,101.540999
1006654,AEON MALL SHAH ALAM,3.076201,101.549344
1008079,MSU (OPP),3.080878,101.550824
1006655,(M) SA237 PANGSAPURI PERDANA,3.085738,101.548798
1006657,SA247 PUSAT KOMERSIAL SEKSYEN 13,3.089024,101.544988
1006658,SA242 METIA RESIDENCES,3.090292,101.547757
1006659,SA752 POLITEKNIK SSAAS,3.085087,101.554651
1006660,CONDOMINIUM PRIMA U1,3.078767,101.555312
1006661,SJ574 APARTMENT INDAHRIA,3.072656,101.556539
1006662,KTM BATU 3,3.075738,101.559838
1001482,SJ573 KILANG GULA CSR,3.071667,101.556446
1008216,SA132 AVENUE CREST (OPP),3.068423,101.556178
1000643,SA133 KG KEBUN BUNGA (UTARA),3.064441004,101.5565689
1001046,SA962 KG KEBUN BUNGA (SELATAN),3.061962159,101.5569725
1008218,SA946 MASJID FASTABIQUL,3.059446,101.556919
1002506,SA961 SEKSYEN 22/PETRONAS,3.057585716,101.5563044
1008219,SA384 SEKSYEN 22,3.057551,101.555891
1002507,SA385 KG KEBUN BUNGA/PETRONAS,3.061823825,101.5566667
1006666,SA131 KG KEBUN BUNGA/PETRON,3.064131,101.556343
1006667,SA386 AVENUE CREST,3.068578,101.555871
1006668,POLITEKNIK SSAAS (OPP),3.085034,101.554275
1008080,MSU,3.08106,101.551028
1006671,AEON MALL SHAH ALAM (OPP),3.076535,101.549554
1006651,SA254 PUSAT KOMERSIAL WORLDWIDE,3.072874,101.54119
1006669,PUSAT AKUATIK,3.074305,101.537447
1008078,DEWAN JENJAROM,3.077083,101.529777
1006670,SA22 SMA TENGKU AMPUAN JEMAAH,3.078832,101.526053
1000212,SA368 BALAI POLIS SEKSYEN 11,3.076223,101.525138
1004249,SA18 WISMA PKPS,3.073348181,101.5229818
1006037,PJ137 TERMINAL TAMAN MEDAN,3.075537,101.633102
1002554,PJ138 PJS 4 (TIMUR),3.076043,101.629572
1003446,PJ139 PJS 4 (BARAT),3.076344809,101.627899
1002851,PJ140 PJCC,3.078428,101.627186
1000839,PJ141 PJ SOUTH CITY,3.080845,101.627209
1003745,PJ143 SURAU MADRASATUL IMANIYA,3.083289,101.627176
1003075,PJ730 FLAT DESA MENTARI,3.084916,101.627607
1000999,PJ412 APT INAI COURT,3.085098,101.654377
1004161,PJ413 UITM PJ (OPP),3.086949,101.652272
1001981,PJ415 TERMINAL BAS (OPP),3.086895,101.646789
1006205,PJ456 PERPUSTAKAAN KOMUNITI PJ (OPP),3.090344,101.64598
1006033,PJ460 KOMPLEKS ARENA PJ (OPP),3.09203,101.6455333
1006034,PJ432 WISMA PERKESO (OPP),3.095074,101.646502
1001979,PJ434 DEWAN SIVIK MBPJ,3.098113,101.645854
1002617,PJ249 PPUM (UTARA),3.113294731,101.6513975
1001729,PJ472 PJ CHURCH,3.107376541,101.6538066
1003129,PJ474 SK LA SALLE (SELATAN),3.100103,101.652639
1003339,PJ448 SMK (P) ASSUNTA (OPP),3.098800623,101.6503886
1000165,PJ133 SHERATON PJ,3.103207,101.640056
1006036,PJ757 WISMA IEM,3.098985,101.646956
1006206,PJ451 WISMA PERKESO,3.094789,101.646736
1003674,PJ452 KOMPLEKS ARENA PJ,3.092533,101.645975
1002425,PJ453 PERPUSTAKAAN KOMUNITI PJ,3.090805947,101.6460488
1003891,(M) PJ469 TERMINAL BAS,3.087051,101.647131
1001844,PJ455 MAHKAMAH SYARIAH,3.086795,101.650753
1001000,PJ411 APT INAI COURT (OPP),3.085194,101.654585
1000840,PJ145 GERAI PJS 2C,3.081736,101.627329
1003149,PJ742 PJ SOUTH CITY,3.079994,101.627322
1002339,PJ147 PJCC,3.077964,101.627341
1002272,PJ148 PJS 4 (BARAT),3.076622755,101.6279089
1001765,PJ149 PJS 4 (TIMUR),3.076324,101.629378
1006115,KL2100 SURAU TMN BUNGA RAYA (OPP),3.213076,101.729456
1006116,UTAR PINTU 4 (OPP),3.214716,101.730167
1003847,KL163 UTAR MAIN GATE (OPP),3.214896,101.728557
1006117,UTAR PINTU 2 (OPP),3.213626,101.727132
1002558,KL980 SURAU AL-AMIN,3.214176,101.721755
1008381,KL981 INDAH APARTMENT,3.211786,101.720964
1008387,KL970 DANAU KOTA APARTMENT (OPP),3.208683,101.719969
1007537,KL942 PV12 RESIDENCE,3.206814,101.717428
1007538,KL1519 AEON BIG DANAU KOTA,3.204432,101.715764
1007539,KL1520 PV15 PLATINUM,3.202479,101.716971
1003849,(M) KL1598 COLUMBIA HOSPITAL,3.200977,101.718495
1007521,KL680 SETAPAK SENTRAL (SELATAN),3.202388,101.720442
1006118,KL940 SETAPAK CENTRAL,3.204846,101.720942
1008388,KL971 DANAU KOTA APARTMENT,3.208892,101.719771
1008382,KL972 INDAH APARTMENT (OPP),3.212288,101.720757
1008380,KL973 VISTA WIRAJAYA,3.215423,101.722522
1002545,UTAR PINTU 2,3.213774,101.727103
1003846,KL162 UTAR MAIN GATE,3.215263807,101.7292471
1003489,UTAR PINTU 4,3.214897,101.730169
1008325,KL2101 SURAU TAMAN BUNGA RAYA,3.213066,101.729618
1006268,KL172 FLAT BLOK G9,3.209006,101.732225
1002266,KL173 PUSAT PENJAJA SEKSYEN 2,3.211222,101.733151
1000349,KL174 BLOK E10 (OPP),3.211896801,101.7352751
1000345,KL175 BLOK C14,3.210641,101.737187
1000344,KL176 HOSPITAL TENTERA TUANKU MIZAN,3.209197581,101.7380062
1000341,KL177 BLOK A5,3.207066198,101.7385449
1000330,KL178 BLOK 5,3.205765305,101.7373739
1006540,SJ533 LRT ALAM MEGAH,3.023277,101.572424
1003297,SK HICOM,3.027174508,101.5699876
1008225,SA50 SRI IXORA APARTMENT,3.028091,101.568615
1000443,SA120 TAMAN BUKIT SAGA,3.031434521,101.5693602
1000812,SA121 PROTON HICOM (TIMUR),3.034298,101.564048
1001838,SA122 I-PARC,3.035138852,101.5599146
1000618,SA124 PROTON HICOM,3.035507487,101.5579779
1008226,METHODIST CAC,3.004453,101.545783
1008227,SA178 PERUMAHAN ANGGERIK (UTARA),3.003629,101.548087
1008228,SA179 SURAU AN-NAJIHIN,2.999948,101.550929
1008229,SA180 PERUMAHAN ANGGERIK (TIMUR),2.994048,101.549682
1000337,SA182 PANGSAPURI SRI NERVILLA,2.986482316,101.5495516
1008230,SA183 SRI NERVILLIA,2.984285,101.549171
1002661,SA188 KOTA KEMUNING INDUSTRIAL PARK,2.981955518,101.5471256
1003817,SA189 KEMUNING GREENVILLE (SELATAN),2.980303983,101.5378954
1000495,SA190 GREENVILLE (UTARA),2.984092697,101.5358396
1002798,SA193 SMK KOTA KEMUNING (UTARA),2.985933192,101.5409488
1008247,SA199 KOTA KEMUNING HILLS (SELATAN),2.986524,101.540134
1000816,SA200 MERANTI TERRACE,2.986586371,101.53532
1008246,SA221 SJKC CHUNG HUA KOTA KEMUNING,2.989023,101.532389
1008231,SK BUKIT RIMAU,2.992453,101.527444
1008232,SHAH ALAM BUDDIST SOCIETY,2.995721,101.526651
1008498,SA169 CHINESE TAIPEI SCHOOL (OPP),2.998171,101.527441
1008495,AEON BIG BUKIT RIMAU (OPP),2.999288,101.527879
1008496,GEO BUKIT RIMAU,3.000737,101.526674
1008497,PUSAT KOMERSIAL BUKIT RIMAU,2.998918,101.526166
1008236,GAMUDA WALK MALL (OPP),3.000923,101.532826
1001858,SA170 CANAL GARDEN,3.003345007,101.5336189
1001567,SA171 KOTA KEMUNING BUSINESS PARK,3.003383366,101.5383664
1008237,SA894 KOTA KEMUNING CENTRAL LAKE,3.002597,101.540143
1000619,SA130 PROTON HICOM (BARAT),3.035886403,101.5577158
1000912,SA137 SEKSYEN 26 (TIMUR),3.03512565,101.5614794
1000825,SA139 PROTON HICOM (TIMUR),3.034469,101.565662
1000316,SA140 TAMAN BUKIT SAGA,3.031539416,101.5696545
1003298,SK HICOM (OPP),3.027013,101.570212
1006519,PJ671 LRT LEMBAH SUBANG,3.112072,101.590682
1006174,MENARA PRASARANA,3.113323,101.584889
1006966,LOTUS RAWANG,3.302417,101.596916
1006967,SL351 KG BT16 RAWANG (TIMUR),3.304136,101.595285
1006969,DEWAN TAMAN KANCHING,3.303357,101.59175
1006971,SAM RAWANG (OPP),3.302364,101.591669
1006973,TAMAN MAWAR,3.29979,101.590504
1006974,PANGSAPURI TAMAN TUN TEJA (OPP),3.297112,101.592762
1006976,MASJID TAMAN TUN TEJA,3.295099,101.591795
1006975,SL439 PANGSAPURI TAMAN TUN TEJA,3.297165,101.592588
1006972,SL440 TAMAN MAWAR,3.299724,101.590343
1006970,SAM RAWANG,3.30249,101.591562
1006977,SK TUN TEJA (OPP),3.303047,101.5897
1006979,TAMAN MUHIBBAH,3.303312,101.587035
1006982,PANGSAPURI BERINGN (OPP),3.30203,101.582813
1006983,SURAU AL-RADHIYAH (OPP),3.301714,101.58152
1006985,TAMAN BERSATU,3.305181,101.580505
1006987,TAMAN BERSATU FASA 4,3.307201,101.582609
1001115,MEDAN SELERA RAWANG PERDANA (OPP),3.312536,101.585452
1001825,KLINIK KESIHATAN RAWANG PERDANA,3.314829,101.596037
1008404,RAWANG PERDANA 10,3.325326,101.590541
1008406,SL455 TAMAN BUKIT RAWANG JAYA,3.333579,101.587806
1008408,SL458 BUKIT RAWANG JAYA,3.336924,101.587284
1008411,SL459 FLAT BUKIT RAWANG JAYA (OPP),3.337127,101.585367
1008413,SL460 SK BUKIT RAWANG JAYA (OPP),3.334956,101.582335
1008414,SL361 RAWANG MUTIARA BUSINESS CENTRE,3.328308,101.580438
1008416,SL362 BANDAR BARU RAWANG,3.323878,101.576842
1006996,SL365 TERMINAL BAS RAWANG,3.318382,101.578148
1008415,SL360 RAWANG MUTIARA BUSINESS CENTRE,3.328476,101.580159
1008412,SL451 SK BUKIT RAWANG JAYA,3.335183,101.582309
1008410,SL452 FLAT BUKIT RAWANG JAYA,3.337331,101.585126
1008409,SL453 BUKIT RAWANG JAYA,3.337111,101.587337
1008407,SL454 TAMAN BUKIT RAWANG JAYA,3.332966,101.588352
1008405,RAWANG PERDANA 11,3.325448,101.590685
1001118,SL449 KLINIK KESIHATAN RAWANG (OPP),3.314769,101.596208
1001117,MEDAN SELERA RAWANG PERDANA,3.312261,101.585486
1006990,SL367 SRJKC SAN YUK RAWANG,3.310477,101.582914
1006988,TAMAN BERSATU FASA 4,3.307348,101.582972
1006986,TAMAN BERSATU,3.305284,101.580808
1006984,SURAU AL-RADHIYAH,3.301884,101.581372
1006981,PANGSAPURI BERINGIN,3.302282,101.582953
1006980,TAMAN MUHIBBAH,3.303433,101.587324
1006978,SL445 SK TUN TEJA,3.303294,101.589414
1006968,SL372 KG BT16 RAWANG,3.304371,101.595317
1007616,SK BATU ARANG,3.320912,101.471247
1007617,SMK TUANKU ABDUL RAHMAN (OPP),3.317991,101.473166
1007594,SJKT BATU ARANG,3.311014,101.473461
1007591,SL190 SIMPANG TASIK PUTERI,3.304661,101.472862
1007589,PANGSAPURI AZALEA,3.292408,101.472296
1007587,SL187 PINEWOOD COURT,3.286494,101.469644
1007585,SL131 SMK BANDAR TASIK PUTERI,3.286567,101.473069
1007584,SK TASIK PUTERI 2 (OPP),3.281414,101.474563
1007582,BANDAR TASIK PUTERI 8,3.285609,101.476884
1007580,BANDAR TASIK PUTERI 2 (OPP),3.292109,101.496954
1007578,SL402 PASAR KG BARU KUNDANG,3.279466,101.514562
1007575,SL400 KG BARU KUNDANG,3.272512,101.514406
1007573,SL324 TAMAN RAHMAT JAYA KUNDANG,3.261629,101.519313
1007571,SL327 SK SERI KUNDANG (OPP),3.257952,101.521636
1007569,SL328 DEWAN KG MELAYU KUNDANG,3.255247,101.525477
1007566,SL329 KG MELAYU KUNDANG,3.254025,101.526136
1007565,SL330 TAMAN TASIK BIRU,3.248641,101.52948
1007562,SL331 KG SETIA KUANG,3.240554,101.535148
1007561,(M) KOMERSIAL MASGENUINE SQUARE,3.236451,101.540735
1007559,PINGGIRAN RAHMAN PUTRA,3.232423,101.547665
1007557,SK BUKIT RAHMAN PUTRA (OPP),3.228193,101.552937
1007555,KOMERSIAL BRP 7,3.229409,101.558461
1007554,SL596 SPG BRP 8/2,3.230569,101.564936
1007553,SL597 TAMAN PERINDUSTRIAN BRP 8/DAIKIN,3.228646,101.565893
1007552,SL598 TAMAN VILLA PUTRA,3.226541,101.567568
1007551,SL607 SK SG BULOH,3.215013,101.577659
1007002,SL564 STELLARS GROCER (OPP),3.211384,101.577404
1007000,SA995 MRT SG BULOH,3.206685,101.580838
1007001,SL552 STELLARS GROCER,3.211823,101.577405
1007003,SL553 SK SG BULOH,3.214774,101.578807
1007005,SL554 HOSPITAL SG BULOH PINTU C (OPP),3.217734,101.581396
1007007,SL555 HOSPITAL SG BULOH UTAMA (OPP),3.220775,101.583395
1007009,SL556 KOLEJ SAINS KESIHATAN (OPP),3.221372,101.58745
1007011,SL557 UITM SG BULOH,3.21966,101.593327
1007013,SL558 MASJID SG BULOH,3.219001,101.596911
1007012,(M) SL559 UITM SG BULOH (OPP),3.219405,101.593238
1007010,SL560 KOLEJ SAINS KESIHATAN,3.221164,101.587473
1007008,SL561 HOSPITAL SG BULOH UTAMA,3.220688,101.583769
1007006,SL562 HOSPITAL SG BULOH PINTU C,3.21782,101.581653
1007004,SL563 SMK SIERRAMAS,3.214533,101.578955
1007018,SL565 SK SG BULOH (OPP),3.214882,101.577572
1007019,SL566 KG MELAYU BT 13,3.217213,101.57548
1007020,SL567 KG MELAYU BT 13,3.219551,101.573378
1007021,SL568 KG MELAYU BT 13,3.221636,101.571512
1007022,SL569 KG MELAYU BT 13,3.224005,101.569396
1007023,SL570 DATARAN VILLA PUTRA,3.226471,101.567315
1007024,SL571 PERINDUSTRIAN BRP 8/YAMAHA,3.229368,101.565277
1007025,SL572 PERUMAHAN BRP 7,3.229163,101.558528
1007556,SK BUKIT RAHMAN PUTRA,3.228004,101.552355
1007558,PINGGIRAN RAHMAN PUTRA,3.232163,101.547729
1007560,TAMAN MASGENUINE,3.235197,101.542681
1007563,SL332 SURAU KG SETIA KUANG,3.240179,101.535205
1007564,SL333 TAMAN TASIK BIRU,3.248346,101.529429
1007567,SL334 KG MELAYU KUNDANG,3.253873,101.525621
1007568,SL335 DEWAN KG MELAYU KUNDANG,3.255324,101.525148
1007570,SL320 SK SERI KUNDANG,3.257792,101.521001
1007572,SL321 TAMAN RAHMAT JAYA KUNDANG,3.261615,101.519144
1007574,SL322 KUNDANG LAKES COUNTRY CLUB,3.263061,101.517741
1007576,SURAU KG BARU KUNDANG,3.273021,101.514333
1007577,PASAR KG BARU KUNDANG,3.279485,101.514363
1007579,BANDAR TASIK PUTERI 2,3.292002,101.497113
1007581,SL305 BANDAR TASIK PUTERI,3.285734,101.477179
1007583,SL140 SK TASIK PUTERI 2,3.281142,101.474555
1007586,SMK BANDAR TASIK PUTERI,3.286627,101.472814
1007588,PINEWOOD COURT (OPP),3.286554,101.469121
1007590,PANGSAPURI AZALEA (OPP),3.292071,101.471757
1007592,SIMPANG TASIK PUTERI,3.304976,101.472788
1007593,SL133 SPG OC 8/9 BATU ARANG,3.309494,101.473225
1007595,SL149 PEJABAT TM BATU ARANG,3.312266,101.473134
1007596,SMK TUANKU ABDUL RAHMAN,3.318176,101.472706
1007543,SL185 PINGGIRAN BT CAVES (SELATAN),3.251999,101.693785
1007440,SL786 MEDAN SELERA PINGGIRAN,3.254193,101.693863
1007502,SL189 MEDAN SELERA PINGGIRAN,3.254757,101.693983
1007545,SL191 PINGGIRAN BT CAVES (SELATAN),3.252533,101.693927
1007503,SL205 SK TAMAN SERI GOMBAK 2 (OPP),3.242092,101.69966
1003526,SL506 TAMAN PRIMA SRI GOMBAK,3.236721,101.699731
1000748,SL470 MASJID AR-RAHIMAH,3.232623063,101.7011859
1000053,SL471 SRA RAKYAT DARUL MUJAHIDIN,3.227343,101.697911
1003993,KL1796 TAMAN KOPERASI POLIS 1,3.219629222,101.6941185
1004016,(M) KL1794 TAMAN PELANGI,3.207884716,101.6936555
1001661,KL989 KG CHUBADAK HULU (SELATAN),3.201064,101.694566
1001659,KL991 KG CHUBADAK TAMBAHAN,3.199427,101.692432
1008383,PASAR SENTUL (OPP),3.188571,101.691434
1000255,KL2064 SMK CONVENT SENTUL (OPP),3.186882,101.691629
1008377,D6 SENTUL,3.180778,101.692479
1000736,(M) KL667 MRT TITIWANGSA,3.173556,101.695916
1003871,KL668 HOSPITAL TAWAKAL,3.177278,101.699941
1008384,KL2500 MASJID AMRU SENTUL,3.179908,101.698141
1001894,KL652 MAKPEM,3.178467,101.698128
1003644,KL2052 SMK LA SALLE,3.179513,101.692342
1007541,D7 SENTUL,3.180878,101.692244
1001660,KL992 KG CHUBADAK TAMBAHAN,3.199917,101.692779
1001408,KL993 KG CHUBADAK HULU,3.201146,101.694392
1004015,KL1793 TAMAN PELANGI,3.207640006,101.6934376
1003997,KL1795 TAMAN KOPERASI POLIS,3.219586113,101.6937
1000052,(M) SL468 RAUDHATUL SAKINAH,3.227729,101.697673
1000749,SL469 MASJID AR-RAHIMAH,3.232185738,101.7005705
1003525,SL222 TAMAN PRIMA SRI GOMBAK,3.238024,101.699406
1001404,SL315 KEPONG INDUSTRIAL PARK,3.206837,101.607239
1000499,SL316 TAMAN WANGSA PERMAI/COCOMART,3.208377,101.611257
1003213,SL312 DESA AMAN PURI (SELATAN),3.208862,101.614937
1007597,SL623 SK AMANPURI,3.216236,101.613845
1007598,SL624 APARTMENT DESA SATU,3.214185,101.615035
1000074,SL1 APARTMENT DESA DUA,3.212391,101.615622
1000547,SL2 DESA AMAN PURI (UTARA),3.211352,101.616918
1007600,SL628 PADANG BOLA TAMAN EHSAN,3.218822,101.621881
1007601,SL629 PASAR MODEN TAMAN EHSAN,3.220915,101.624777
1007602,SL630 PERUMAHAN TAMAN EHSAN JLN E5/1,3.223003,101.627665
1007604,SL631 PERUMAHAN TAMAN EHSAN JLN E5/1,3.224206,101.631003
1007606,SL632 KG KEPONG ULU,3.224597,101.633144
1007608,SL633 SMK KEPONG (OPP),3.226353,101.635487
1000811,SL16 FRIM,3.227907,101.63771
1003234,SL634 KUARTERS FRIM,3.233569,101.640526
1007611,SL523 SK SELAYANG UTAMA,3.235677,101.64116
1003157,SL100 SELAYANG MALL,3.236597,101.644088
1007613,SL513 TAMAN SELAYANG JAYA,3.236372,101.645195
1001178,SL514 TAMAN SELAYANG JAYA (BARAT),3.236617,101.646895
1004047,SL99 TAMAN SELAYANG JAYA (UTARA),3.238926,101.646561
1000931,SL24 HOSPITAL SELAYANG,3.241316,101.648081
1000505,SL25 IDEAL CONVENTION CENTRE,3.244937,101.653269
1001842,SL26 MAGNA VILLE CONDOMINIUM,3.243914,101.652866
1002194,SL27 KOMPLEKS SELAYANG CAPITOL,3.240852,101.647885
1004048,SL91 TAMAN SELAYANG JAYA,3.239014,101.646772
1001179,SL510 TAMAN SELAYANG JAYA,3.236613,101.647045
1007612,SL517 TAMAN SELAYANG (BARAT),3.235584,101.6414
1007610,SL639 PARAGON UTAMA,3.233444,101.6408
1000810,SL518 TAMAN KEPONG INDAH,3.227875,101.63797
1007609,SMK KEPONG,3.226183,101.635549
1007607,KG KEPONG ULU,3.224797,101.633742
1007605,PERUMAHAN TAMAN EHSAN JLN E5/2,3.223948,101.631299
1007603,PERUMAHAN TAMAN EHSAN JLN E5/2,3.222961,101.627926
1000641,SL6 TAMAN EHSAN (TIMUR),3.220164,101.624017
1002312,SL7 TAMAN EHSAN (SELATAN),3.218421,101.621584
1000500,SL209 TAMAN WANGSA PERMAI/COCOMART (OPP),3.208317,101.611406
1007599,SL616 MAS KIPARK DAMANSARA,3.207006,101.608651
1000926,SL124 HOSPITAL ORANG ASLI (OPP),3.293001,101.731382
1003131,SL120 SKEM BUSINESS CENTRE,3.288651,101.730846
1003120,SL126 KG BATU 11 GOMBAK,3.282569,101.729562
1003089,SL127 KG BATU 11,3.280393628,101.7292561
1001111,SL129 HENTIAN BATU 11,3.278752,101.729577
1003668,SL132 DESA MAKMUR,3.267772,101.727481
1002417,SL134 KG SUNGAI SALAK,3.263647,101.726672
1007516,SL136 TAMAN PERMAI JAYA (UTARA),3.26069,101.726758
1007517,SL137 TAMAN PERMAI JAYA (SELATAN),3.25728,101.726113
1003547,SL139 TAMAN RAWIYAH SULAIMAN JAYA,3.254644,101.725752
1002845,SL142 MASJID ZAKARIA (OPP),3.251226,101.724127
1008654,SL496 BATU 8 GOMBAK UTARA,3.249271,101.723298
1003637,SL144 LEMBAH PINGGIRAN SG CHINCIN,3.247958,101.722944
1003655,SL145 SPG JLN SG PUSU,3.244591,101.721446
1003164,SL166 KG SG CHINCIN (TIMUR),3.243757,101.720204
1002869,SL167 MASJID SG CHINCHIN (OPP),3.244645496,101.7167008
1001256,SL168 KG SG CHINCHIN,3.244675,101.714887
1001456,SL169 KG SG CHINCHIN (UTARA),3.242955,101.713955
1000265,SL500 KG GOMBAK UTARA,3.241485,101.714034
1003639,SL170 SK GOMBAK UTARA,3.239419417,101.7142613
1003654,SL171 SK SG PUSU,3.237334,101.714453
1001949,SL172 AYUMAN SUITES,3.234067467,101.7141037
1000195,SL174 BALAI POLIS GOMBAK,3.218599,101.713073
1002518,SL175 JABATAN VETERINAR,3.216991161,101.7131322
1000397,(M) KL904 BATU 5 GOMBAK,3.213358,101.711984
1002599,KL905 PEJABAT POS GOMBAK,3.212413226,101.7091363
1003601,KL906 SRA ZAID HARITHAH,3.21094748,101.7065472
1002261,KL907 RESIDENSI INSPIRIA (OPP),3.209196079,101.7046576
1003575,KL908 JU XIAN MIOW,3.207334,101.702901
1003512,KL909 BATU 4 GOMBAK,3.206078826,101.7021297
1001428,KL2119 KG PADANG BALANG,3.204943,101.700569
1001268,KL987 KG PADANG BALANG,3.205617,101.698912
1003742,KL988 KG CHUBADAK HULU (UTARA),3.204748,101.697551
1001114,KL994 KG CHUBADAK HULU (UTARA),3.204774,101.697384
1001427,KL995 KG PADANG BALANG,3.205747,101.699039
1003511,KL899 BATU 4 GOMBAK,3.205718573,101.7016796
1002260,KL900 RESIDENSI INSPIRIA,3.208744144,101.7036936
1001898,KL901 MASJID ZAID HARITHAH,3.211145,101.706347
1004244,(M) KL902 PETRONAS JALAN GOMBAK,3.212524869,101.7082062
1000396,KL903 BATU 5 GOMBAK,3.213529,101.711619
1003636,SL101 SK 1 & 2 GOMBAK,3.216992641,101.7128823
1001899,SL102 MASJID AS SYAKIRIN,3.218642897,101.7128221
1008379,SL510 AYUMAN SUITES (OPP),3.234313,101.713826
1001638,SL106 SK SG PUSU (OPP),3.236011,101.714303
1003638,SL107 SK GOMBAK UTARA (OPP),3.238763,101.714013
1007512,SL498 KG SG PUSU (UTARA),3.241288,101.713754
1007513,SL499 KG SG CHINCIN (SELATAN),3.242534,101.713711
1001255,SL108 KG SG CHINCHIN,3.245066,101.715124
1003801,SL113 MASJID SG CHINCHIN,3.245093496,101.7163176
1001457,SL114 KG SG CHINCIN (TIMUR),3.243951,101.720037
1003337,SL115 BATU 8 GOMBAK,3.245028,101.721603
1003546,SL116 LEMBAH PINGGIRAN SG CHINCIN,3.247301,101.722615
1002416,SL497 BATU 8 GOMBAK UTARA,3.249574,101.723244
1008653,SL143 MASJID ZAKARIA GOMBAK,3.251284,101.723978
1003667,SL117 TAMAN RAWIYAH SULAIMAN JAYA,3.253724,101.725209
1007518,SL138 TAMAN PERMAI JAYA (S),3.257326,101.725983
1001462,SL118 KG SG SALAK BT 10,3.260605,101.726634
1008649,SL135 KG SUNGAI SALAK,3.263536,101.726517
1003119,SL119 DESA MAKMUR,3.269307,101.727678
1007514,SL130 HENTIAN BATU 11,3.278433,101.729494
1007515,SL495 KG BATU 11,3.282543,101.729355
1003130,SL121 SKEM BUSINESS CENTRE (OPP),3.288451293,101.7306114
1000925,SL122 HOSPITAL ORANG ASLI,3.292573187,101.7312588
1001616,PJ721 ONE UTAMA NEW WING,3.150242489,101.614903
1007468,PJ845 ARMANEE TERRACE,3.170896,101.604868
1002404,PJ645 PARADESA TROPIKA (OPP),3.180779334,101.6076759
1000149,PJ647 SD APARTMENT 2,3.187658,101.603106
1000726,PJ28 APARTMENT SRI MERANTI,3.191452802,101.6031581
1004157,PJ649 8TRIUM DAMANSARA,3.1973338,101.6108109
1002666,PJ593 PUSAT KERETA BERJAYA,3.200002345,101.6252662
1001405,KL1758 KEPONG SENTRAL,3.207950264,101.6289771
1001982,KL449 CALTEX (OPP),3.213111,101.632449
1008340,KL450 BALAI POLIS KEPONG,3.213761,101.634434
1002027,KL451 MRT METRO PRIMA PINTU A,3.214387,101.639283
1008341,(M) TAMAN USAHAWAN KEPONG,3.217437,101.642622
1002028,KL560 AEON MALL METRO PRIMA,3.214125419,101.6396647
1008339,KL561 MASJID AMANIAH KEPONG,3.213519,101.634548
1000436,KL562 CALTEX,3.213001,101.633043
1001406,KL990 KEPONG SENTRAL (OPP),3.207983,101.629344
1003437,PJ594 SPG BKT MALURI,3.202716,101.627347
1008338,PJ642 8TRIUM DAMANSARA (OPP),3.197945,101.610893
1000727,PJ27 SMK BANDAR SRI DAMANSARA 2,3.191579,101.603321
1000150,(M) PJ648 SD APARMENT,3.187951,101.603266
1002403,PJ646 PARADESA TROPIKA,3.181038,101.607109
1000877,PJ379 MANHATTAN BUSINESS HOTEL,3.164618,101.612251
1008215,PERUMAHAN BUKIT UTAMA,3.150542,101.605776
1001787,KL1117 LRT BANGSAR,3.127479715,101.678803
1003608,KL1760 SUASANA SENTRAL LOFT,3.130321224,101.683642
1002086,KL1095 BANGSAR UTAMA,3.12920316,101.6806598
1001788,(M) KL1096 LRT BANGSAR (OPP),3.127368853,101.6791495
1002030,KL2148 MID VALLEY (SELATAN),3.116342691,101.6761083
1002921,KL1914 LUCKY GARDEN,3.127174,101.673442
1002215,KL1761 BANGSAR VILLAGE (SELATAN),3.128631,101.670213
1000228,KL1128 BANGSAR VILLAGE (BARAT),3.129766,101.670235
1002357,KL1132 BANGSAR TELAWI (SELATAN),3.131005,101.670385
1002944,KL1130 BANGSAR TELAWI (TENGAH),3.132621,101.670447
1003504,KL1129 BANGSAR TELAWI (UTARA),3.134449,101.670509
1008142,KL1125 BANGSAR BARU (UTARA),3.136098,101.672078
1002093,KL1160 TAMAN BANDARAYA,3.139263869,101.6721024
1003371,KL1147 SMK BUKIT BANDARAYA,3.142346446,101.6716702
1000225,(M) KL1139 BANGSAR SHOPPING CENTER (OPP),3.143064,101.668125
1002918,KL1149 APT BANGSAR INDAH,3.140286737,101.6727445
1002905,KL1150 RUMAH NO 164,3.138061413,101.6734203
1002901,KL1908 TAMAN BUKIT PERSEKUTUAN,3.136686,101.674128
1002886,KL1909 SPG LORONG LIMAU MANIS,3.13560952,101.674097
1002883,KL1904 SPG LORONG MAAROF 4,3.133867268,101.6740607
1002964,KL1911 SPG LORONG MAAROF 2,3.133062568,101.6740086
1000061,KL1912 SPG LORONG MAAROF 2,3.131536208,101.6739672
1000534,KL1157 FLAT SRI PAHANG,3.129604,101.674649
1000519,KL1142 DATARAN MAYBANK,3.126412,101.677303
1002791,KL1013 TAMAN DATO SENU,3.193997,101.694054
1003788,KL1005 PADANG DATO SENU,3.195966129,101.6957465
1002372,KL1007 KOMERSIAL DATO SENU,3.193629,101.695757
1003035,KL1014 PERUMAHAN SENTUL IMPIAN,3.195259,101.692095
1000488,KL106 MENARA UAB/CIMB,3.150702338,101.6955667
1001183,KL107 LRT MASJID JAMEK,3.149509333,101.6965179
1001673,KL108 KOTA RAYA,3.145271745,101.6981892
1001170,(M) PASAR SENI (PLATFORM A7 - A8),3.142984,101.695636
1001810,KL105 LRT MASJID JAMEK,3.149428687,101.6961895
1000520,KL1820 DATARAN MERDEKA,3.149957,101.693829
1000533,KL39 MENARA DBKL,3.153669,101.694597
1002860,KL996 PERUMAHAN SENTUL IMPIAN,3.195374,101.691975
1002783,SA699 HAB BAS U5,3.177228,101.536335
1002120,SA703 KOMERSIAL SUBANG U5,3.178706,101.535787
1002075,SA704 MUTIARA SUBANG,3.183078,101.535779
1003699,SA721 APARTMENT SUBANG SURIA,3.184248,101.535235
1002185,SA707 PANGSAPURI UTARID,3.182572,101.535168
1002121,SA698 KOMERSIAL SUBANG U5,3.178694815,101.5359275
1003176,SA723 TAMAN SUBANG PELANGI,3.174251,101.532089
1004069,SA686 PANGSAPURI SRI PELANGI,3.169084835,101.5342849
1001522,SA687 TAMAN PUTERI SUBANG,3.167513,101.534259
1008650,SA688 APARTMENT JASMIN,3.165047,101.535131
1002582,SA689 KOMERSIAL PINGGIRAN SUBANG,3.162552798,101.5360029
1004133,SA749 KG MELAYU SUBANG (UTARA),3.159753,101.532064
1001447,SA664 TAMAN SUBANG BARU,3.152921,101.529267
1001733,SA667 KG MELAYU SUBANG (BARAT),3.148669,101.530516
1002382,SA668 KG MELAYU SUBANG (SELATAN),3.144093,101.535883
1002046,SA669 PEKAN BARU SUBANG,3.145410661,101.5379841
1003698,SA672 KOMERSIAL SUBANG PERDANA,3.149769,101.543583
1008652,SA673 U5 (BARAT),3.145268,101.544585
1002727,SA674 U5 (SELATAN),3.140041,101.547028
1007347,SA922 KG BARU SUBANG (SELATAN),3.138181,101.552859
1006522,SA993 RESTORAN SUBANGKU,3.135058,101.55355
1008269,SA904 SUBANG SKYPARK TERMINAL (OPP),3.133476,101.554369
1001757,SA1071 KTM TERMINAL SKYPARK,3.134496,101.554915
1003890,SA902 MALAYSIAN AIRLINE BERHAD,3.130825,101.555973
1000105,SA900 AEROTREE (OPP),3.124724,101.559552
1002473,SA905 PETRONAS SUBANG AIRPORT,3.117092309,101.5645259
1000157,SA907 OASIS ARA DAMANSARA (SELATAN),3.11392315,101.5698662
1003767,PJ607 OASIS RIO DAMANSARA/SYMPHONY,3.109362147,101.5828092
1006588,PJ609 LRT ARA DAMANSARA,3.107592,101.58608
1000388,PJ605 BT 10/MENTARI COURT (OPP),3.083486083,101.6072917
1002063,(M) PJ611 KTM SETIA JAYA (OPP),3.08395519,101.6126016
1003173,PJ601 PLAZA SERI SETIA,3.08456019,101.6183399
1001734,PJ599 HIGHWAY CENTER,3.091946253,101.6320809
1000671,PJ442 FINAS,3.109654,101.643371
1002620,PJ597 PPUM FEDERAL,3.110181,101.652903
1001897,KL1102 MASJID AR-RAHMAN UM,3.117133056,101.662474
1004178,KL1110 STADIUM HOKI KL,3.118467,101.665014
1003761,KL1111 IPD PANTAI,3.117597833,101.6671214
1000366,KL1112 SK BANGSAR (OPP),3.117027882,101.6706333
1001575,KL1113 BALAI ISLAM TNB,3.118337992,101.6722528
1004098,KL1114 HQ TNB,3.120545601,101.6736035
1002106,KL1115 APARTMENT PUTRA RIA (OPP),3.123338095,101.6763374
1003609,KL1075 SUASANA SENTRAL LOFT,3.130350345,101.6842354
1001512,KL1079 KL SENTRAL,3.132961,101.687618
1004275,KL1090 SENTRAL EXHIBITION MALL,3.134408,101.688902
1003588,KL1925 JABATAN WARISAN NEGARA,3.138258,101.694216
1002639,KL1091 PUBLIC BANK (OPP),3.138761,101.695062
1004344,(M) KL2212 PASAR SENI (PLATFORM D1 - D6),3.141834,101.695246
1000857,KL2144 TM BRICKFIELDS,3.137467706,101.693245
1002495,KL2145 HOTEL PRESCOTT,3.136322,101.690915
1004276,KL1080 BRICKFIELDS,3.13364006,101.6890816
1002023,KL1082 SK METHODIST,3.131473,101.689089
1002234,KL1083 PALM COURT,3.129818,101.687114
1002600,KL1097 PPR ABDULLAH HUKUM,3.123169833,101.676547
1004110,KL1098 LRT ABDULLAH HUKUM,3.118032048,101.6726008
1000365,KL1099 SK BANGSAR,3.116760977,101.6703441
1008143,KL1191 IPD PANTAI,3.117224,101.667171
1001410,(M) KL1441 KL GATEWAY - LRT UNIVERSITI,3.114747885,101.6618104
1002621,PJ596 KWSP FEDERAL,3.110005627,101.6531814
1000166,(M) PJ750 PJ8 TOWER,3.102238563,101.6392613
1003174,PJ600 KTM SERI SETIA,3.084470697,101.6200471
1002064,PJ744 KTM SETIA JAYA,3.083701358,101.61282
1000387,PJ606 BT10/MENTARI COURT,3.083141196,101.6081813
1008324,(M) PJ610 LRT ARA DAMANSARA (OPP),3.107109,101.585532
1003068,PJ608 DATARAN PHB,3.108999,101.582599
1006589,SA908 OASIS ARA DAMANSARA (SELATAN),3.112881,101.571694
1006523,SA906 BULATAN SUBANG AIRPORT,3.116964,101.563837
1000104,SA899 AEROTREE,3.12436147,101.5593898
1003889,SA901 SUBANG SKYPARK,3.131166155,101.5553366
1007327,SA909 SUBANG SKYPARK TERMINAL,3.133203,101.553966
1007346,SA921 KG BARU SUBANG (SELATAN),3.138994,101.552405
1002726,SA604 U5 (SELATAN),3.140191,101.546844
1001421,SA603 U5 (BARAT),3.146088,101.543611
1003697,SA654 KOMERSIAL SUBANG PERDANA,3.149544,101.543415
1002047,SA655 PEKAN BARU SUBANG,3.145205,101.538202
1002383,SA656 KG MELAYU SUBANG (SELATAN),3.144174,101.536324
1006785,SJKC SUBANG,3.142784,101.534938
1002025,SA661 KG MELAYU SUBANG (BARAT),3.148488,101.530508
1001446,SA663 TAMAN SUBANG BARU,3.152513225,101.5291476
1004134,SA777 KG MELAYU SUBANG (UTARA),3.160127208,101.5325466
1002581,SA690 APARTMENT JASMINE BLOK 4,3.163214,101.535467
1008651,SA891 APARTMENT JASMIN (OPP),3.165103,101.534858
1000062,SA691 KOMERSIAL PUTERI SUBANG,3.167557,101.533989
1004068,SA694 PERUMAHAN SUBANG GALAKSI,3.169365,101.534011
1003175,SA718 TAMAN SUBANG PELANGI (UTARA),3.174006,101.531931
1001804,PJ585 LRT KELANA JAYA,3.112745,101.604492
1001508,PJ602 KJMC,3.108755893,101.5956854
1001805,PJ603 LRT KELANA JAYA,3.113161,101.605368
1002113,PJ67 OCBC,3.133001823,101.6204967
1004277,PJ134 LAVELL GALLERY,3.135062,101.620776
1001837,PJ724 DAMANSARA UPTOWN (UTARA),3.137274,101.620646
1000297,(M) PJ208 BHP DAMANSARA UTAMA,3.138152856,101.6228797
1004155,PJ540 MRT BANDAR UTAMA,3.145118,101.617893
1003370,PJ541 SMK BANDAR UTAMA,3.143429751,101.6146692
1003627,PJ761 SJKC PUAY CHAI 2,3.145463805,101.611005
1008321,PJ529 SURAU AL-SYAKIRIN,3.147343,101.612092
1002389,PJ383 PELANGI ASTANA,3.153593,101.603289
1003240,PJ384 SHELL SUNWAY DAMANSARA,3.149862,101.600192
1007091,PJ387 MRT SURIAN,3.149407,101.593449
1008323,PJ87 SUNSURIA,3.154709,101.590774
1000707,(M) PJ82 GUGUSAN DEDAP (OPP),3.158761008,101.5940006
1003651,PJ83 SK SEKSYEN 11,3.160212674,101.5946349
1004099,PJ662 D'VILLA BOTANI,3.162024711,101.5913197
1001932,PJ665 MASJID KOTA DAMANSARA,3.161602,101.586886
1000112,PJ89 PANGSAPURI CARLINA,3.158282,101.587221
1000146,PJ91 PANGSAPURI SIANTAN,3.156103,101.585074
1001194,PJ666 KOMERSIAL SEPAH PUTERI,3.156067,101.583167
1000752,PJ355 GUGUSAN SEMARAK 4,3.153917,101.580029
1000725,PJ667 GUGUSAN MELATI,3.151754,101.578448
1000724,PJ360 GUGUSAN MAWAR,3.151152,101.578658
1000891,PJ668 GUGUSAN MATAHARI,3.150611,101.580394
1000463,PJ366 APARTMENT D'SHIRE VILLA,3.150244,101.583845
1007078,PJ368 MRT SURIAN,3.149946,101.593092
1002235,PJ369 PALM SPRING,3.149631989,101.598903
1002388,(M) PJ370 PELANGI ASTANA (OPP),3.154399,101.603414
1000991,PJ534 IKEA,3.15530257,101.6123537
1003194,PJ628 EMPIRE CITY,3.165622,101.615167
1000249,PJ629 BANDAR UTAMA (OPP),3.149985,101.617426
1001064,PJ630 JEJANTAS DAMANSARA UTAMA,3.135094,101.624479
1000232,PJ208 KOMERSIAL SS 21/56B,3.137923,101.622136
1004278,PJ142 KOMERSIAL SS 21/1A,3.135276,101.621019
1000371,PJ710 BOMBA SS2,3.12595,101.623107
1008320,PJ625 BP SPECIALIST CENTRE (OPP),3.115425,101.614453
1001169,PJ162 TAMAN MEGAH,3.112216318,101.610432
1003898,SJ213 HENTIAN PUTRA PERMAI,2.995785,101.669025
1006264,PANGSAPURI SRI INDAH,2.999578,101.664741
1006166,DESAMINIUM FLORA,3.007934,101.664758
1006139,SMK TAMAN DESAMINIUM,3.008046,101.662853
1006265,FLAT LESTARI PERDANA 2 (OPP),3.007937,101.666521
1006145,LP8,3.011795,101.671703
1006148,SJ702 PUJ 4 TAMAN PUNCAK JALIL,3.017892,101.674835
1006150,PUJ 6,3.023042,101.67483
1006151,PERUMAHAN PUJ 6/10,3.025086,101.679616
1006152,PUJ 7,3.02799,101.6804
1006153,TAMAN PUNCAK JALIL,3.033672,101.678388
1002146,SJ372 PANGSAPURI ENGGANG,3.035791,101.672771
1003262,SJ373 SIMFONI KINRARA,3.035739,101.666748
1001994,SJ379 MELODY KINRARA,3.035801,101.664132
1001848,(M) SJ380 PERUMAHAN MELODY,3.036053,101.659926
1000906,SJ381 PERUMAHAN HENING,3.036186,101.657467
1000878,SJ382 KINRARA GOLF CLUB (OPP),3.037021778,101.654539
1008501,SJ15 KEJURUTERAAN BOMBA KINRARA,3.041177,101.650167
1008500,SJ395 KINRARA GOLF CLUB (BARAT),3.043648,101.648385
1006167,(M) SJ398 LRT BK 5,3.050161,101.644297
1004342,KL1821 PASAR SENI (PLATFORM A1 - A2),3.142834,101.6956
1002755,SL493 NISSAN,3.234001267,101.6825853
1009144,SHELL/MCD BATU CAVES,3.235283,101.689851
1008365,KL594 MRT KG BATU,3.205422,101.675887
1008686,RUMAH NO 18,3.095148,101.610208
1008687,PJ209 PERUMAHAN SS 3,3.092885,101.607267
1001341,PJ325 KEDAI HARDWARE,3.086796,101.622337
1008688,MAZ INTERNATIONAL SCHOOL,3.104496,101.625818
1008689,KOMERSIAL SS2 (VISION SPACE),3.119028,101.623668
1006324,SJ212 HENTIAN PUTRA PERMAI,2.996214,101.668611
1000208,SJ218 EQUINE PARK,2.995113,101.672158
1001032,SJ219 AEON JUSCO EQUINE PARK,2.993532,101.674266
1002482,SJ220 PETRONAS EQUINE PARK,2.994787,101.676741
1000620,SJ191 EQUINE BOULEVARD,2.995648,101.678848
1004011,SJ192 NAHRIM,3.001042,101.687174
1000425,SJ186 SK TAMAN UNIVERSITI,3.005023852,101.6905657
1003425,SJ187 TAMAN UNIVERSITI INDAH (BARAT),3.007427593,101.6908004
1003506,SJ188 TAMAN UNIVERSITI INDAH (TIMUR),3.008325,101.693167
1008113,KOMERSIAL SRI KEMBANGAN,3.013945,101.697211
1008114,SUN GARDEN VILLA,3.016653,101.696538
1008115,BUKIT SERDANG 6,3.021233,101.696605
1008116,BUKIT SERDANG 5,3.022298,101.698693
1008009,APARTMENT SRI MEWAH,3.023331,101.698151
1008117,PANGSAPURI KIAMBANG,3.026123,101.699251
1008118,APT SRI IMPIAN,3.032655,101.699001
1008120,APT MEGARIA TULIP,3.034784,101.700099
1008122,APT MEGARIA DAISI,3.035849,101.699306
1008124,KOMERSIAL BUKIT SERDANG,3.038119,101.697874
1008126,SIGNATURE BS9,3.037441,101.694248
1008127,APT VISTA SERDANG (OPP),3.037442,101.690313
1008129,TAMAN BUKIT SERDANG BS11,3.039762,101.688321
1008131,PANGSAPURI ORKID,3.041807,101.687801
1008132,VILLA PARK,3.044055,101.688872
1008133,DEWAN SERBAGUNA MPSJ,3.042801,101.690291
1008130,TAMAN BUKIT SERDANG,3.039634,101.688514
1008128,APT VISTA SERDANG,3.037576,101.689787
1008125,KOMERSIAL 32 AVENUE,3.037642,101.698009
1008123,PANGSAPURI BAYU,3.035988,101.69962
1008121,APT MEGARIA TULIP (OPP),3.034593,101.700208
1008119,APT SRI IMPIAN (OPP),3.032628,101.699337
1008012,PERUMAHAN SK 1,3.028501,101.701419
1008013,PERUMAHAN SK 2,3.027655,101.702553
1008014,PERUMAHAN SK 8,3.024905,101.704751
1006345,KOMERSIAL SERDANG JAYA,3.019391,101.711938
1008168,PANGSAPURI PKNS CENDANA,3.022493,101.713234
1008169,PANGSAPURI PKNS,3.023621,101.710423
1008170,STADIUM SERDANG JAYA (OPP),3.021294,101.711456
1006328,KOMERSIAL SRI SERDANG,3.019108,101.711986
1008017,TAMAN SRI ANDALAS SK,3.017118,101.707892
1008010,TAMAN BUKIT SERDANG SEKSYEN 4,3.020698,101.700278
1008167,PANGSAPURI SERI PINANG (OPP),3.015485,101.696907
1003507,SJ183 TAMAN UNIVERSITI INDAH (TIMUR),3.008108,101.693084
1002771,SJ184 TAMAN UNIVERSITI INDAH (BARAT),3.007429299,101.6910423
1003333,(M) SJ185 SK TAMAN UNIVERSITI (OPP),3.005799543,101.690827
1004010,SJ189 NAHRIM (OPP),3.000592,101.687074
1008112,SJ190 EQUINE BOULEVARD,2.995424,101.679221
1001033,SJ205 AEON JUSCO EQUINE PARK (OPP),2.993285,101.674086
1000207,SJ208 EQUINE PARK,2.994967,101.671973
1001272,SJ214 KOMERSIAL PUTRA PERMAI 9,2.996404,101.669648
1000542,(M) KL2301 KLCC (OPP),3.159305986,101.7122953
1000082,KL2306 AMPANG PARK,3.160423658,101.7183672
1006723,PANGSAPURI PAHLAWAN,3.060106,101.757615
1006724,APARTMENT WAJA,3.057335,101.757667
1007180,PETRONAS BTHO 2 (OPP),3.054613,101.757834
1008003,SMK BTHO 2 (OPP),3.053884,101.755724
1007181,SK BTHO 2 (OPP),3.052596,101.755077
1007182,PERUMAHAN SUADAMAI,3.049777,101.754912
1007183,KJ332 PANGSAPURI SUAKASIH (OPP),3.037933,101.758468
1003022,TAMAN CHERAS PERDANA FASA 6,3.039110363,101.7632916
1003590,TAMAN CHERAS PERDANA FASA 5,3.041968,101.765046
1003374,SMK CHERAS PERDANA,3.044012,101.766291
1002212,TAMAN CHERAS PERDANA FASA 4,3.046373,101.767875
1002468,PETRONAS CHERAS PERDANA,3.047227,101.76835
1003007,TAMAN MEGAH 2,3.049878,101.769909
1003180,APARTMENT NETIZEN (OPP),3.049836859,101.7721219
1001511,KL SENTRAL,3.133649,101.685557
1009071,TAMAN BOTANI PERDANA,3.147367,101.686771
1005051,PARLIMEN GATE 3,3.149496,101.678636
1006476,HENTIAN SELAYANG MUTIARA,3.260901,101.673262
1006481,KG SELAYANG PERMAI,3.25942,101.666999
1006479,SPG JLN MUTIARA 6,3.256476,101.661784
1006477,SELAYANG SEGAR 2,3.255054,101.659263
1007618,SL286 STADIUM SELAYANG,3.255335,101.656733
1002068,SL267 MPS,3.253696,101.652835
1000118,SL268 APT DAHLIA BLOK B,3.252464,101.650775
1000116,SL272 APT DAHLIA BLOK A,3.252717,101.647661
1002653,SL527 PUNCAK TEMPLER,3.256829,101.647681
1001471,SL528 KI PARK SELAYANG,3.259302,101.651664
1001851,SL278 MAJLIS PEPERIKSAAN MSIA,3.260836,101.652611
1007621,PEJABAT TANAH DAERAH GOMBAK,3.262729,101.653016
1003378,SL20 IPD GOMBAK (OPP),3.250183699,101.6410034
1002452,SL21 PANGSAPURI MERAK,3.246421,101.642195
1001078,SL22 TAMAN BIDARA (UTARA),3.243248,101.643574
1007620,SL515 SURAU FIRDAUS TAMAN BIDARA,3.241904,101.644135
1003158,SL511 SELAYANG MALL (OPP),3.236374,101.644596
1001636,SL83 KOMPLEKS SRI SIANTAN (OPP),3.246364774,101.6743823
1001555,SL482 SMK TAMAN SELAYANG (OPP),3.243329479,101.6740608
1003331,SL84 SMK SERI SELAYANG (OPP),3.241904623,101.6736049
1001166,SL85 SK TAMAN SELAYANG (OPP),3.241390295,101.6735679
1002592,SL86 PETRONAS DATARAN SELAYANG,3.238351,101.673264
1001874,SL87 MASJID AL-AMANIAH,3.236078015,101.673939
1001892,SL88 KOMPLEKS AMANIAH,3.235404,101.675139
1001444,SL89 PADANG AWAM BATU CAVES,3.235693,101.677353
1004263,SL485 PLAZA UMNO BATU CAVES,3.236009,101.679157
1000479,SL465 KOMERSIAL SRI GOMBAK,3.236141,101.698475
1003118,SL146 SK INTEGRASI GOMBAK,3.245121697,101.7228263
1001696,SL147 KUARTERS INSTITUT PENDIDIKAN,3.245128,101.724581
1003361,SL148 INTERNATIONAL ISLAMIC SCHOOL,3.24692949,101.7281656
1008656,PINTU UTAMA UIA,3.248593,101.732684
1003362,SL163 KOLEJ VOKASIONAL GOMBAK,3.246681237,101.7283127
1001697,SL164 KUARTERS GURU BATU 8,3.244887,101.725061
1003117,SL165 SBP INTEGRASI GOMBAK,3.244203813,101.7220301
1008342,SL234 HENTIAN GREENWOOD,3.234798,101.704505
1006472,BANJARIA COURT,3.235857,101.698832
1006473,GIANT BATU CAVES,3.235583,101.692558
1001708,SL494 PLAZA UMNO BATU CAVES,3.235775,101.679588
1001445,SL28 PADANG AWAM BATU CAVES (OPP),3.235465,101.677474
1001728,SL29 KOMPLEKS AMANIAH (OPP),3.235101,101.675116
1002356,SL30 KOMERSIAL TAMAN SELAYANG,3.235967415,101.6735984
1007547,SL483 DATARAN SELAYANG (OPP),3.23787,101.67325
1003330,SL31 SK TMN SELAYANG,3.241483,101.673317
1008344,SL443 SMK SERI SELAYANG,3.241907,101.673347
1001167,SL32 SMK TAMAN SELAYANG,3.24367,101.673877
1001635,SL33 KOMPLEKS SRI SIANTAN,3.246273419,101.6740809
1003245,SL516 SHELL TAMAN BIDARA,3.241402,101.644149
1003434,SL17 TAMAN BIDARA (UTARA),3.243532,101.643183
1000684,SL18 PANGSAPURI MERAK,3.246566,101.641694
1001012,SL19 IPD GOMBAK,3.251437,101.641266
1001852,SL281 MAJLIS PEPERIKSAAN MSIA,3.260809,101.652854
1001472,SL525 KI PARK SELAYANG,3.259155,101.651905
1002654,SL526 PUNCAK TEMPLER,3.256881,101.647885
1000117,SL273 APT DAHLIA BLOK A,3.252912083,101.6479071
1000119,SL276 APT DAHLIA BLOK B,3.252443,101.650597
1002067,SL277 MPS,3.253944,101.652798
1006475,SELAYANG SEGAR 1,3.255075,101.658964
1006478,SPG JLN MUTIARA 5/7,3.256725,101.662055
1006480,KG SELAYANG MUTIARA 4,3.259349,101.666583
1006526,SJ693 LRT USJ 7,3.054758,101.592176
1000545,SJ687 DEPOH METROBUS,3.049969508,101.5919918
1006590,SJ549 LRT TAIPAN,3.0482,101.590702
1006591,SJ23 USJ 9 TAIPAN (UTARA),3.047218,101.588295
1002112,SJ24 USJ 10 TAIPAN (UTARA),3.048974586,101.5862386
1008073,MENARA MPSJ,3.05191,101.583445
1008074,SK SEAFIELD (OPP),3.056868,101.588342
1002078,SJ67 MYDIN USJ,3.058061779,101.5963618
1003239,SJ68 TAMAN SUBANG PERMAI (UTARA),3.05811502,101.6013524
1004150,SJ71 REGALIA BUSINESS CENTRE,3.055776,101.604419
1003292,SJ72 SJKC CHEE WEN,3.051151,101.602574
1002187,SJ632 PUSAT INDUSTRI IKS USJ1,3.048505987,101.6017484
1004306,SJ77 APARTMENT MERANTI,3.046148,101.601575
1002123,SJ78 PANGSAPURI ANGSANA,3.044505,101.601982
1002758,SJ81 APARTMENT ANGSANA (SELATAN),3.042994897,101.60075
1001860,SJ690 ZON PERINDUSTRIAN USJ1,3.043026,101.596089
1004185,SJ725 GOODYEAR COURT 6 (SELATAN),3.042999,101.593605
1000882,SJ82 GOODYEAR COURT 7,3.042916,101.590921
1003867,SJ550 USJ 14 (TIMUR),3.041744888,101.5883222
1001529,(M) SJ544 GOODYEAR COURT 10,3.037925,101.590717
1008642,SJ688 SUBANG GOODYEAR 9,3.038409,101.592489
1000883,GOODYEAR COURT 9C (OPP),3.040118445,101.5925272
1009083,SJ720 SUBANG PERDANA GOODYEAR COURT 6,3.043239,101.593236
1001859,SJ689 ZON PERINDUSTRIAN USJ1,3.043265,101.595543
1002364,SJ84 APARTMENT ANGSANA (SELATAN),3.043265,101.600073
1002122,SJ79 PANGSAPURI JATI1,3.044832,101.601621
1008641,SJ628 MEDAN SELERA USJ1,3.046581,101.601258
1003290,SJ80 PUSAT INDUSTRI IKS USJ1,3.048662,101.601492
1002802,SJ73 GRAND VILLE USJ 1,3.050822,101.602152
1002960,SJ74 REGALIA BUSINESS PARK (OPP),3.056047,101.604231
1003238,SJ69 TAMAN SUBANG PERMAI,3.057852,101.601312
1002079,SJ70 MYDIN USJ (OPP),3.057813609,101.596389
1006527,USJ SENTRAL,3.057809,101.594744
1007267,KJ510 MRT KAJANG,2.982685,101.790098
1006199,(M) KJ536 KOMPLEKS PKNS BANGI,2.962426,101.756659
1008544,PPJ202 NADI 15 P15,2.946307,101.721992
1005625,PPJ276 KOMPLEKS PARCEL E (UTARA),2.944436,101.707934
1005626,PPJ187 KOMPLEKS PARCEL E (BARAT),2.943665,101.705229
1005627,PPJ188 DATARAN PAHLAWAN,2.941926,101.704431
1005628,PPJ189 KOMPLEKS KERAJAAN PARCEL D,2.939138,101.701795
1005652,PPJ49 KEMENTERIAN KEWANGAN,2.927547,101.688711
1005653,PPJ50 PERBENDAHARAAN 2 (SELATAN),2.925327,101.687956
1005654,PPJ51 LEMBAGA PEMBIAYAAN PERUMAHAN (SELATAN),2.923217,101.687236
1005655,PPJ52 MENARA USAHAWAN,2.920856,101.686418
1005656,PPJ53 ISTANA KEHAKIMAN (UTARA),2.918378,101.685599
1005657,PPJ54 ISTANA KEHAKIMAN (SELATAN),2.916473,101.684966
1005658,PPJ55 KEMENTERIAN BELIA & SUKAN,2.914144,101.684242
1005659,PPJ376 GALERIA PJH,2.911057,101.683303
1005660,PPJ56 MOTOCROSS CIRCUIT (TIMUR),2.909816,101.682767
1005661,PPJ33 KEMENTERIAN PEMBANGUNAN LUAR BANDAR,2.904778,101.681029
1005662,PPJ34 DATARAN GEMILANG,2.903404,101.681176
1005584,(M) PPJ254 MRT PUTRAJAYA SENTRAL,2.932136,101.671763
1005665,PPJ39 MOTOCROSS CIRCUIT,2.909976,101.682162
1005666,PPJ40 GALERIA PJH,2.912047,101.682703
1005667,PPJ41 KEMENTERIAN PERTANIAN,2.914798,101.683859
1005668,PPJ42 PERBADANAN PUTRAJAYA (SELATAN),2.916673,101.684601
1005669,PPJ43 PERBADANAN PUTRAJAYA (UTARA),2.918475,101.685189
1005670,PPJ44 JABATAN PENDAFTARAN NEGARA,2.920393,101.685857
1005671,PPJ45 LEMBAGA PEMBIAYAAN PERUMAHAN (UTARA),2.922944,101.686688
1005672,PPJ46 PERBENDAHARAAN 2 (UTARA),2.924972,101.687394
1005673,PPJ47 MENARA PERKESO,2.927249,101.688175
1005725,PPJ48 PUTRA SQUARE,2.934597,101.690497
1000314,PPJ185 TAMAN BOTANI PUTRAJAYA,2.946054,101.697888
1000315,PPJ186 TAMAN PUTRA PERDANA (TIMUR),2.94746053,101.7036329
1001201,PPJ190 KOMPLEKS B/ LAMAN PERDANA (TIMUR),2.938926,101.695456
1005696,PPJ191 KOMPLEKS PARCEL F,2.944757,101.708408
1008545,PPJ204 NADI 15 P15,2.946629,101.722218
1003499,SL240 TAMAN SRI GOMBAK FASA 4,3.240708,101.707096
1001176,SL257 BT CAVES INDUSTRIAL PARK,3.228241756,101.6845946
1008372,KL640 RESIDENSI SKY AWANI,3.209083,101.689499
1008374,KL1503 ONE MAXIM,3.205386,101.689431
1008189,KL641 1 SENTUL CONDOMINIUM (OPP),3.200113,101.690415
1008375,KL618 DARUL HIDAYAH,3.205379,101.689185
1008373,KL619 RESIDENSI SKY AWANI (OPP),3.208922,101.689286
1003994,KL623 TAMAN KOPERASI POLIS,3.220585,101.689193
1003571,SL466 SHELL TAMAN MELATI (OPP),3.23579821,101.7238451
1003572,SL467 SHELL TAMAN MELATI,3.23366894,101.7244642
1006093,RUMAH NO 25,3.249489,101.704471
1002606,KL1360 LRT MUHIBBAH,3.062023,101.662001
1001560,KL1355 KOMERSIAL TAMAN BUKIT OUG,3.062029,101.664236
1001079,KL1356 BUKIT OUG CONDOMINIUM,3.062137,101.667713
1000307,KL2163 BUKIT OUG CONDOMINIUM,3.062544,101.669045
1000808,KL1745 FORTUNA COURT CONDOMINIUM,3.066066883,101.6685602
1008145,UNION HEIGHTS CONDO (OPP),3.072295,101.668466
1000287,KL1246 BHP (OPP),3.074173,101.671395
1002891,KL2149 TAMAN OUG (UTARA),3.076692,101.675484
1001236,KL2150 PERUMAHAN HUJAN EMAS,3.074126,101.677774
1003901,KL2151 TAMAN OUG (SELATAN),3.072543,101.677159
1004111,KL2152 SJKC YOKE NAM,3.074812,101.676816
1002941,PERUMAHAN HUJAN EMAS 3,3.077156,101.675344
1002896,PERUMAHAN HUJAN EMAS 1,3.078426,101.674323
1002569,KL1249 OUG PLAZA (OPP),3.081988,101.670445
1002570,KL1250 OUG PLAZA,3.082307067,101.6706698
1003144,KL1243 SK SERI MEGA,3.077568,101.670605
1001235,KL1245 TAMAN YARL (TIMUR),3.075363,101.670712
1002753,KOMERSIAL HUJAN EMAS 8,3.071426,101.677384
1008144,UNION HEIGHTS CONDO,3.072134,101.668551
1000807,KL1744 FORTUNA COURT CONDOMINIUM,3.065997723,101.6690884
1000308,KL2162 KIARA RESIDENCE 2,3.062922,101.669177
1000309,KL1357 BUKIT OUG CONDOMINIUM (OPP),3.061792,101.666848
1006611,KL424 ARKED ESPLANADE,3.060988,101.676295
1006613,KL571 TAMAN ESPLANADE (BARAT),3.060309,101.678176
1006615,KL572 TAMAN ESPLANADE (TIMUR),3.059633,101.680948
1006619,COVILLEA CONDOMINIUM,3.058765,101.685124
1002658,KL576 IMU BUKIT JALIL,3.059171,101.687342
1001791,KL151 LRT BKT JALIL,3.058519,101.691519
1000612,KL1320 ENDAH VILLA CONDOMINIUM,3.064724232,101.6918424
1001580,KL2029 8 PETALING CONDOMINIUM,3.066401,101.690988
1003146,KL1327 SMK SRI PETALING,3.066578,101.688183
1002204,KL1328 BANDAR BARU SRI PETALING,3.067094932,101.6861349
1003619,KL1240 PERUMAHAN JALAN PERISA,3.072599921,101.6823964
1001238,KL1241 TAMAN BANDARAYA,3.077603,101.681197
1002117,(M) KL1242 TAMAN BUKIT INDAH,3.081323087,101.6809128
1003765,KL1251 TAMAN GEMBIRA,3.084113,101.682045
1003497,KL1252 TAMAN GEMBIRA (UTARA),3.085075,101.681929
1001154,KL1253 TAMAN CONTINENTAL,3.087849,101.681617
1001377,KL1254 TAMAN CONTINENTAL (TENGAH),3.088722,101.681392
1001155,KL1531 TAMAN CONTINENTAL (UTARA),3.089978763,101.6808723
1001370,KL1266 KUCHAI BUSINESS PARK,3.091183,101.676011
1004255,KL1276 VERVE SUITES,3.092457907,101.6746293
1000072,(M) KL1277 SCOTT GARDEN/AMBANK,3.095961922,101.6753479
1001474,(M) KL1280 TAMAN SHANGHAI (SELATAN),3.099155,101.675978
1003199,KL1281 SOUTHBANK RESIDENCE,3.101513,101.676822
1004204,KL1282 3RD MILES SQUARE,3.103537,101.677629
1001009,KL1283 SHELL (OPP),3.105557,101.678057
1004229,KL1284 WISMA BUDDHIST,3.108093,101.678386
1001346,KL1395 SAVILLE RESIDENCE (OPP),3.110688,101.678065
1000981,KL1179 MAZDA,3.109498143,101.6785088
1000289,(M) KL1180 BHP,3.107284428,101.6786829
1003216,KL1181 SHELL,3.105637,101.678384
1004113,KL1182 THAM WAH WAN,3.103407315,101.6779196
1000493,KL1183 AVANTAS RESIDENCE,3.100143157,101.6765307
1003568,(M) KL1184 TAMAN SHANGHAI (SELATAN),3.098404,101.676208
1003004,KL1750 THE SCOTT GARDEN,3.095314391,101.6757257
1002263,KL1212 PASAR KLANG LAMA,3.092366649,101.675045
1000416,KL1213 KUCHAI BUSINESS CENTRE,3.09132138,101.6765943
1002833,KL1214 TAMAN LIEN HO,3.090819,101.679588
1003474,KL1751 TAMAN CONTINENTAL,3.090276,101.681048
1003682,KL1255 KOMERSIAL TAMAN CONTINENTAL,3.088642969,101.6820901
